rosbagTimestamp,header,seq,stamp,secs,nsecs,frame_id,child_frame_id,pose,position,x,y,z,orientation,qx,qy,qz,qw
2437756000000,,109593,,2437,754000000,"""map""","""base_link""",,,-9.6062577722,-346.894232761,0.0069295555,,7.47866710721E-05,-8.83285977592E-05,-0.7167394369,-0.6973410687
2437764000000,,109594,,2437,764000000,"""map""","""base_link""",,,-9.6062524175,-346.894243899,0.0069342289,,7.3874848978E-05,-8.80511109891E-05,-0.7167382518,-0.697342287
2437774000000,,109595,,2437,774000000,"""map""","""base_link""",,,-9.6062332263,-346.894256066,0.0069294568,,7.4832119192E-05,-8.86575730878E-05,-0.7167358337,-0.6973447721
2437783000000,,109596,,2437,784000000,"""map""","""base_link""",,,-9.6062095047,-346.894273651,0.0069245903,,7.63113087525E-05,-8.94592126588E-05,-0.7167306936,-0.6973500549
2437794000000,,109597,,2437,794000000,"""map""","""base_link""",,,-9.6062034005,-346.894289774,0.0069284971,,7.55872175017E-05,-8.93350695565E-05,-0.7167238608,-0.6973570776
2437804000000,,109598,,2437,804000000,"""map""","""base_link""",,,-9.6062117599,-346.894309439,0.0069328253,,7.48364078728E-05,-8.91267413898E-05,-0.7167199939,-0.697361052
2437814000000,,109599,,2437,814000000,"""map""","""base_link""",,,-9.6062277487,-346.894330341,0.0069357619,,7.35568864792E-05,-8.8958489806E-05,-0.7167163867,-0.6973647594
2437824000000,,109600,,2437,824000000,"""map""","""base_link""",,,-9.6062681586,-346.89434856,0.0069383184,,7.4367729314E-05,-9.24351695811E-05,-0.7167199448,-0.697361102
2437834000000,,109601,,2437,834000000,"""map""","""base_link""",,,-9.606250364,-346.894361991,0.0069327822,,7.530558397E-05,-9.26687162474E-05,-0.7166873625,-0.6973945872
2437844000000,,109602,,2437,844000000,"""map""","""base_link""",,,-9.6062421426,-346.894377897,0.0069266046,,7.65364159962E-05,-9.26086096613E-05,-0.716685581,-0.6973964178
2437854000000,,109603,,2437,854000000,"""map""","""base_link""",,,-9.606227948,-346.894394423,0.0069302212,,7.44654787814E-05,-9.11003446273E-05,-0.7166838505,-0.6973981966
2437864000000,,109604,,2437,864000000,"""map""","""base_link""",,,-9.6062096838,-346.894411657,0.0069388089,,7.2237900475E-05,-8.96428932926E-05,-0.7166798994,-0.6974022573
2437874000000,,109605,,2437,874000000,"""map""","""base_link""",,,-9.606201027,-346.894428492,0.0069429927,,7.22581062109E-05,-9.2062458612E-05,-0.7166742303,-0.6974080828
2437884000000,,109606,,2437,884000000,"""map""","""base_link""",,,-9.6062020088,-346.894445369,0.0069397644,,7.09132953746E-05,-9.08236460723E-05,-0.7166697813,-0.6974126549
2437894000000,,109607,,2437,894000000,"""map""","""base_link""",,,-9.6062103806,-346.894460947,0.0069366624,,7.33249446168E-05,-9.41251958498E-05,-0.7166647947,-0.6974177785
2437904000000,,109608,,2437,904000000,"""map""","""base_link""",,,-9.6062572053,-346.894476999,0.0069311726,,7.53132877832E-05,-0.000093055,-0.7166651691,-0.6974173937
2437915000000,,109609,,2437,914000000,"""map""","""base_link""",,,-9.6062537413,-346.894490707,0.0069257015,,7.70528346001E-05,-9.2603858124E-05,-0.7166341865,-0.6974492299
2437924000000,,109610,,2437,924000000,"""map""","""base_link""",,,-9.6062483531,-346.89450581,0.0069272383,,7.72757066671E-05,-9.15689461205E-05,-0.7166338834,-0.6974495414
2437934000000,,109611,,2437,934000000,"""map""","""base_link""",,,-9.606228802,-346.894522081,0.0069350244,,7.41555879721E-05,-9.04201322734E-05,-0.7166330623,-0.6974503856
2437944000000,,109612,,2437,944000000,"""map""","""base_link""",,,-9.6062036147,-346.89454061,0.0069414151,,7.17337018289E-05,-8.9149449136E-05,-0.716629034,-0.6974545251
2437954000000,,109613,,2437,954000000,"""map""","""base_link""",,,-9.6061978821,-346.894550356,0.0069374511,,7.20947060346E-05,-8.91465716445E-05,-0.716621689,-0.6974620718
2437964000000,,109614,,2437,964000000,"""map""","""base_link""",,,-9.6062045863,-346.894569103,0.0069259666,,7.4555772385E-05,-8.9935400043E-05,-0.7166172569,-0.6974666253
2437974000000,,109615,,2437,974000000,"""map""","""base_link""",,,-9.6062094249,-346.894583959,0.0069278207,,7.43576333125E-05,-8.92926215422E-05,-0.7166132273,-0.6974707656
2437984000000,,109616,,2437,984000000,"""map""","""base_link""",,,-9.606255771,-346.894600675,0.0069307741,,7.42964529229E-05,-8.85545540966E-05,-0.7166140007,-0.6974699711
2437994000000,,109617,,2437,994000000,"""map""","""base_link""",,,-9.606249268,-346.894617226,0.0069312529,,7.67494346184E-05,-9.17065601196E-05,-0.7165834009,-0.6975014088
2438004000000,,109618,,2438,4000000,"""map""","""base_link""",,,-9.6062437539,-346.894631481,0.0069298829,,7.48437272753E-05,-8.84624291856E-05,-0.7165827067,-0.6975021227
2438014000000,,109619,,2438,14000000,"""map""","""base_link""",,,-9.606229057,-346.894643378,0.0069277745,,7.49562200725E-05,-8.82277222113E-05,-0.7165814562,-0.6975034073
2438024000000,,109620,,2438,24000000,"""map""","""base_link""",,,-9.6062035387,-346.894661428,0.0069253634,,7.56712194304E-05,-8.85448724902E-05,-0.7165769756,-0.6975080104
2438034000000,,109621,,2438,34000000,"""map""","""base_link""",,,-9.606192914,-346.894677801,0.0069341223,,7.59546101105E-05,-9.18425545323E-05,-0.7165696539,-0.6975155317
2438044000000,,109622,,2438,44000000,"""map""","""base_link""",,,-9.6062023629,-346.894694829,0.0069347296,,7.61158420167E-05,-9.11315048625E-05,-0.7165654815,-0.6975198181
2438054000000,,109623,,2438,54000000,"""map""","""base_link""",,,-9.6062104032,-346.894710853,0.0069308275,,7.5339234676E-05,-9.16514892364E-05,-0.7165616607,-0.6975237432
2438064000000,,109624,,2438,64000000,"""map""","""base_link""",,,-9.6062566342,-346.894727582,0.0069318074,,7.42946791501E-05,-9.09826376896E-05,-0.7165630839,-0.6975222813
2438074000000,,109625,,2438,74000000,"""map""","""base_link""",,,-9.6062461198,-346.894745062,0.006933318,,7.36311756665E-05,-9.02145709026E-05,-0.7165327159,-0.6975534771
2438084000000,,109626,,2438,84000000,"""map""","""base_link""",,,-9.6062388936,-346.894757886,0.0069355814,,7.26636038018E-05,-8.94905187169E-05,-0.7165307355,-0.6975555116
2438094000000,,109627,,2438,94000000,"""map""","""base_link""",,,-9.606226742,-346.894769523,0.0069307718,,7.39837713946E-05,-8.97263053812E-05,-0.7165287676,-0.6975575329
2438104000000,,109628,,2438,104000000,"""map""","""base_link""",,,-9.6062044261,-346.894787238,0.0069243251,,7.64307561988E-05,-9.04778044069E-05,-0.7165251257,-0.6975612734
2438114000000,,109629,,2438,114000000,"""map""","""base_link""",,,-9.606190615,-346.894806374,0.0069287028,,7.51408380733E-05,-8.96740669769E-05,-0.7165193201,-0.697567237
2438124000000,,109630,,2438,124000000,"""map""","""base_link""",,,-9.6061961493,-346.89481858,0.0069375244,,0.000072984,-8.8746197938E-05,-0.7165133404,-0.6975733796
2438134000000,,109631,,2438,134000000,"""map""","""base_link""",,,-9.6062003135,-346.894837778,0.0069332261,,7.40238785771E-05,-0.000089123,-0.7165107106,-0.6975760806
2438144000000,,109632,,2438,144000000,"""map""","""base_link""",,,-9.6062464582,-346.894853553,0.0069301873,,7.39729176597E-05,-8.93237802039E-05,-0.7165086569,-0.69757819
2438154000000,,109633,,2438,154000000,"""map""","""base_link""",,,-9.6062510004,-346.894867209,0.0069283205,,7.46878499389E-05,-8.95243479854E-05,-0.7165148788,-0.6975717991
2438165000000,,109634,,2438,164000000,"""map""","""base_link""",,,-9.6062379188,-346.894882182,0.0069261607,,7.64001874977E-05,-0.000090178,-0.7164777472,-0.6976099367
2438174000000,,109635,,2438,174000000,"""map""","""base_link""",,,-9.6062247259,-346.894901473,0.0069268414,,7.72136232538E-05,-9.0483549594E-05,-0.7164767081,-0.6976110038
2438184000000,,109636,,2438,184000000,"""map""","""base_link""",,,-9.6062050706,-346.894918907,0.0069335017,,7.4397441336E-05,-8.94114371363E-05,-0.7164733669,-0.6976144358
2438194000000,,109637,,2438,194000000,"""map""","""base_link""",,,-9.6061934175,-346.894936515,0.0069383267,,7.2697566394E-05,-8.88446306027E-05,-0.7164682047,-0.6976197377
2438204000000,,109638,,2438,204000000,"""map""","""base_link""",,,-9.6061941196,-346.894948475,0.0069350125,,7.28881385102E-05,-8.90654082486E-05,-0.7164625722,-0.6976255224
2438214000000,,109639,,2438,214000000,"""map""","""base_link""",,,-9.6061920152,-346.894968945,0.0069268663,,7.44567330687E-05,-8.9552705471E-05,-0.716458986,-0.6976292051
2438224000000,,109640,,2438,224000000,"""map""","""base_link""",,,-9.6062274183,-346.894987947,0.006930702,,7.62426010726E-05,-9.253929165E-05,-0.7164546258,-0.6976336824
2438234000000,,109641,,2438,234000000,"""map""","""base_link""",,,-9.6062549475,-346.895001996,0.0069342217,,7.35508861924E-05,-8.83417012561E-05,-0.7164601934,-0.6976279654
2438244000000,,109642,,2438,244000000,"""map""","""base_link""",,,-9.6062422012,-346.895017883,0.0069312371,,7.61742121697E-05,-9.22756329292E-05,-0.7164255414,-0.6976635502
2438254000000,,109643,,2438,254000000,"""map""","""base_link""",,,-9.6062260787,-346.8950335,0.0069289102,,7.70056945028E-05,-9.18853973952E-05,-0.7164252539,-0.6976638454
2438264000000,,109644,,2438,264000000,"""map""","""base_link""",,,-9.6062004597,-346.895046638,0.0069265418,,7.52631336654E-05,-8.83846423197E-05,-0.7164213176,-0.6976678882
2438274000000,,109645,,2438,274000000,"""map""","""base_link""",,,-9.6061877629,-346.895064281,0.0069276481,,7.75503793255E-05,-9.15485722734E-05,-0.7164144894,-0.6976748992
2438284000000,,109646,,2438,284000000,"""map""","""base_link""",,,-9.6061946569,-346.895080484,0.0069313618,,7.70232736566E-05,-9.13171696611E-05,-0.7164094401,-0.6976800842
2438294000000,,109647,,2438,294000000,"""map""","""base_link""",,,-9.6061978678,-346.895095287,0.0069301812,,7.49866999703E-05,-8.81084758676E-05,-0.7164070458,-0.6976825434
2438304000000,,109648,,2438,304000000,"""map""","""base_link""",,,-9.6062404497,-346.89511313,0.0069273772,,7.51307677494E-05,-8.81366308406E-05,-0.716406238,-0.6976833729
2438314000000,,109649,,2438,314000000,"""map""","""base_link""",,,-9.6062428118,-346.895129639,0.0069267794,,7.53325497474E-05,-8.84000947544E-05,-0.7164113019,-0.6976781729
2438324000000,,109650,,2438,324000000,"""map""","""base_link""",,,-9.6062350008,-346.895146559,0.0069332159,,0.000076051,-0.000091679,-0.7163741282,-0.6977163422
2438334000000,,109651,,2438,334000000,"""map""","""base_link""",,,-9.6062245955,-346.895162411,0.0069382207,,7.32616303708E-05,-0.000090602,-0.7163740515,-0.6977164214
2438344000000,,109652,,2438,344000000,"""map""","""base_link""",,,-9.6061996535,-346.89517693,0.0069372224,,0.000072198,-9.00846279931E-05,-0.7163708869,-0.6977196708
2438354000000,,109653,,2438,354000000,"""map""","""base_link""",,,-9.6061818791,-346.895195362,0.0069322159,,0.000072882,-8.99738526257E-05,-0.7163647465,-0.6977259753
2438364000000,,109654,,2438,364000000,"""map""","""base_link""",,,-9.6061854223,-346.89521238,0.0069322831,,7.53700600818E-05,-9.28637920787E-05,-0.7163582603,-0.6977326341
2438374000000,,109655,,2438,374000000,"""map""","""base_link""",,,-9.6061927302,-346.895227001,0.0069342934,,0.000075046,-9.25190721821E-05,-0.7163547941,-0.6977361929
2438384000000,,109656,,2438,384000000,"""map""","""base_link""",,,-9.6062277469,-346.895242302,0.0069331017,,0.000074651,-9.18614833606E-05,-0.7163520476,-0.6977390128
2438394000000,,109657,,2438,394000000,"""map""","""base_link""",,,-9.6062467089,-346.895257674,0.0069301238,,7.54626281305E-05,-9.17428536046E-05,-0.7163574473,-0.6977334689
2438404000000,,109658,,2438,404000000,"""map""","""base_link""",,,-9.606232527,-346.895272778,0.0069269972,,7.72929104661E-05,-9.18763483505E-05,-0.716321615,-0.6977702555
2438414000000,,109659,,2438,414000000,"""map""","""base_link""",,,-9.6062228843,-346.89528835,0.0069274246,,7.74043322738E-05,-9.16351589346E-05,-0.7163209169,-0.6977709722
2438424000000,,109660,,2438,424000000,"""map""","""base_link""",,,-9.6062008,-346.895302934,0.006929879,,7.71059480904E-05,-9.15191281811E-05,-0.7163179134,-0.6977740555
2438434000000,,109661,,2438,434000000,"""map""","""base_link""",,,-9.6061839389,-346.895319438,0.0069292988,,0.000077473,-9.0990298967E-05,-0.7163125439,-0.6977795678
2438444000000,,109662,,2438,444000000,"""map""","""base_link""",,,-9.6061838853,-346.895334385,0.0069290696,,7.71175350399E-05,-9.18003098728E-05,-0.7163059839,-0.6977863018
2438454000000,,109663,,2438,454000000,"""map""","""base_link""",,,-9.6061906339,-346.895349632,0.0069283966,,7.52202715592E-05,-8.79475634218E-05,-0.7163033212,-0.6977890359
2438464000000,,109664,,2438,464000000,"""map""","""base_link""",,,-9.6062134561,-346.895369207,0.0069271719,,7.76321143185E-05,-9.14259275681E-05,-0.7162988549,-0.69779362
2438474000000,,109665,,2438,474000000,"""map""","""base_link""",,,-9.6062487372,-346.89538572,0.0069314687,,7.65245714536E-05,-9.17895836691E-05,-0.7163033328,-0.6977890233
2438484000000,,109666,,2438,484000000,"""map""","""base_link""",,,-9.6062343947,-346.895401242,0.0069313177,,7.68471650865E-05,-9.11434123966E-05,-0.7162705005,-0.6978227252
2438494000000,,109667,,2438,494000000,"""map""","""base_link""",,,-9.606221504,-346.895417534,0.0069307603,,7.5536895197E-05,-9.13927971635E-05,-0.716269703,-0.697823544
2438504000000,,109668,,2438,504000000,"""map""","""base_link""",,,-9.6061988675,-346.895433895,0.0069352085,,7.32141493008E-05,-9.02193321447E-05,-0.716267037,-0.6978262808
2438514000000,,109669,,2438,514000000,"""map""","""base_link""",,,-9.6061824155,-346.895450708,0.0069373031,,7.22692698101E-05,-8.94959496008E-05,-0.7162615802,-0.697831882
2438524000000,,109670,,2438,524000000,"""map""","""base_link""",,,-9.6061831058,-346.895462239,0.0069338606,,0.000072787,-8.94107935122E-05,-0.7162554255,-0.6978381991
2438534000000,,109671,,2438,534000000,"""map""","""base_link""",,,-9.6061852665,-346.895481996,0.006927035,,7.43708269165E-05,-8.96023663135E-05,-0.7162520463,-0.6978416673
2438544000000,,109672,,2438,544000000,"""map""","""base_link""",,,-9.6061883058,-346.895491527,0.0069299362,,7.39464571865E-05,-8.90744461773E-05,-0.7162468225,-0.697847029
2438554000000,,109673,,2438,554000000,"""map""","""base_link""",,,-9.6062307233,-346.895512156,0.0069287621,,7.49956292428E-05,-8.91058315907E-05,-0.7162468369,-0.6978470141
2438564000000,,109674,,2438,564000000,"""map""","""base_link""",,,-9.6062279646,-346.895528914,0.0069318153,,7.41742687472E-05,-8.87653842482E-05,-0.7162517693,-0.6978419517
2438574000000,,109675,,2438,574000000,"""map""","""base_link""",,,-9.6062218552,-346.895539722,0.0069330044,,0.000073934,-8.87659086766E-05,-0.7162131646,-0.6978815727
2438584000000,,109676,,2438,584000000,"""map""","""base_link""",,,-9.6062182373,-346.895555644,0.0069276926,,7.55468726528E-05,-8.95921500882E-05,-0.7162125154,-0.6978822386
2438594000000,,109677,,2438,594000000,"""map""","""base_link""",,,-9.606195094,-346.895573656,0.0069258001,,7.64780901696E-05,-9.00656384892E-05,-0.7162103274,-0.697884484
2438604000000,,109678,,2438,604000000,"""map""","""base_link""",,,-9.6061717924,-346.895589921,0.0069312913,,7.47919214344E-05,-0.000089499,-0.7162039567,-0.6978910221
2438614000000,,109679,,2438,614000000,"""map""","""base_link""",,,-9.6061734206,-346.895607249,0.0069356521,,7.3526750474E-05,-8.90751731033E-05,-0.7161972004,-0.6978979559
2438624000000,,109680,,2438,624000000,"""map""","""base_link""",,,-9.6061855214,-346.895625537,0.0069345402,,7.32427387894E-05,-8.91166797328E-05,-0.7161938559,-0.697901388
2438634000000,,109681,,2438,634000000,"""map""","""base_link""",,,-9.6062115819,-346.895643491,0.0069317408,,7.34533564565E-05,-8.91833901459E-05,-0.7161907155,-0.6979046107
2438644000000,,109682,,2438,644000000,"""map""","""base_link""",,,-9.606240204,-346.895662844,0.0069313195,,7.59722814987E-05,-9.24767124592E-05,-0.7161949857,-0.697900228
2438654000000,,109683,,2438,654000000,"""map""","""base_link""",,,-9.6062224851,-346.895676862,0.0069338571,,7.52692460051E-05,-9.22106963687E-05,-0.7161601946,-0.6979359294
2438664000000,,109684,,2438,664000000,"""map""","""base_link""",,,-9.60621657,-346.895687718,0.0069352501,,7.34066236267E-05,-9.12682778598E-05,-0.7161586147,-0.6979375508
2438674000000,,109685,,2438,674000000,"""map""","""base_link""",,,-9.6061992998,-346.895705437,0.0069284771,,0.00007673,-9.2063671227E-05,-0.7161570544,-0.6979391514
2438684000000,,109686,,2438,684000000,"""map""","""base_link""",,,-9.6061768857,-346.89572127,0.006926439,,7.624105102E-05,-9.15578149373E-05,-0.7161519115,-0.6979444286
2438694000000,,109687,,2438,694000000,"""map""","""base_link""",,,-9.6061719986,-346.895735682,0.0069340142,,0.000073644,-9.00823845243E-05,-0.7161453018,-0.6979512112
2438704000000,,109688,,2438,704000000,"""map""","""base_link""",,,-9.6061806498,-346.89575529,0.0069370487,,7.29408133637E-05,-8.93531097551E-05,-0.7161418037,-0.6979548006
2438714000000,,109689,,2438,714000000,"""map""","""base_link""",,,-9.6061852582,-346.895768357,0.0069355466,,7.26371860508E-05,-8.91917845897E-05,-0.7161377024,-0.6979590088
2438724000000,,109690,,2438,724000000,"""map""","""base_link""",,,-9.6062282137,-346.895789091,0.0069293049,,7.4155844907E-05,-0.000089825,-0.7161386369,-0.6979580497
2438734000000,,109691,,2438,734000000,"""map""","""base_link""",,,-9.6062232245,-346.895799419,0.0069306395,,7.35971770173E-05,-8.89537470561E-05,-0.7161075299,-0.6979899657
2438744000000,,109692,,2438,744000000,"""map""","""base_link""",,,-9.60621911,-346.895819014,0.0069273101,,7.47217169354E-05,-8.88853877996E-05,-0.7161068551,-0.697990658
2438754000000,,109693,,2438,754000000,"""map""","""base_link""",,,-9.6062052519,-346.895832173,0.0069306779,,7.42277648672E-05,-8.84403339155E-05,-0.7161056428,-0.6979919018
2438764000000,,109694,,2438,764000000,"""map""","""base_link""",,,-9.6061816992,-346.895841764,0.0069309916,,7.43831387541E-05,-8.84281307782E-05,-0.7161006831,-0.6979969902
2438774000000,,109695,,2438,774000000,"""map""","""base_link""",,,-9.6061688607,-346.895860546,0.0069269054,,7.55230943746E-05,-8.89660784781E-05,-0.7160943625,-0.6980034745
2438784000000,,109696,,2438,784000000,"""map""","""base_link""",,,-9.6061750082,-346.895878534,0.0069305087,,7.44638407265E-05,-8.87388959916E-05,-0.7160891502,-0.698008822
2438794000000,,109697,,2438,794000000,"""map""","""base_link""",,,-9.6061796787,-346.895897556,0.0069343878,,7.36136663877E-05,-8.84524761578E-05,-0.7160867088,-0.6980113268
2438804000000,,109698,,2438,804000000,"""map""","""base_link""",,,-9.6062118612,-346.895913929,0.0069337333,,7.34974668627E-05,-8.85268910746E-05,-0.7160838613,-0.698014248
2438814000000,,109699,,2438,814000000,"""map""","""base_link""",,,-9.6062287044,-346.895930967,0.0069293385,,7.44307982477E-05,-8.90745177309E-05,-0.7160880574,-0.6980099431
2438824000000,,109700,,2438,824000000,"""map""","""base_link""",,,-9.6062057001,-346.895943842,0.0069292584,,7.42998904267E-05,-8.8720125055E-05,-0.7160513443,-0.6980476051
2438834000000,,109701,,2438,834000000,"""map""","""base_link""",,,-9.6062105522,-346.895961659,0.0069314173,,7.60425804659E-05,-9.22640792326E-05,-0.7160489112,-0.6980501003
2438845000000,,109702,,2438,844000000,"""map""","""base_link""",,,-9.6062034384,-346.895976743,0.0069328631,,7.59029002875E-05,-9.1995108175E-05,-0.7160487248,-0.6980502915
2438854000000,,109703,,2438,854000000,"""map""","""base_link""",,,-9.6061751998,-346.895991602,0.0069299742,,7.64789408816E-05,-9.20007629301E-05,-0.7160450219,-0.6980540899
2438864000000,,109704,,2438,864000000,"""map""","""base_link""",,,-9.6061567887,-346.896007721,0.0069296443,,7.56141127541E-05,-9.14536666514E-05,-0.7160375635,-0.6980617405
2438874000000,,109705,,2438,874000000,"""map""","""base_link""",,,-9.6061670775,-346.896019932,0.0069346745,,0.00007333,-9.02993312877E-05,-0.7160304649,-0.6980690223
2438884000000,,109706,,2438,884000000,"""map""","""base_link""",,,-9.6061800344,-346.896038703,0.0069320354,,7.47364426819E-05,-0.000090469,-0.716028494,-0.6980710437
2438892000000,,109707,,2438,894000000,"""map""","""base_link""",,,-9.6062246171,-346.896052455,0.0069305591,,7.42683691727E-05,-9.02556788226E-05,-0.7160273934,-0.6980721727
2438904000000,,109708,,2438,904000000,"""map""","""base_link""",,,-9.6062213083,-346.896070763,0.0069267349,,7.67524561466E-05,-9.11198303634E-05,-0.7160335022,-0.6980659063
2438915000000,,109709,,2438,914000000,"""map""","""base_link""",,,-9.6062101259,-346.896087497,0.0069273113,,7.67303911121E-05,-9.08568963166E-05,-0.7159951147,-0.6981052797
2438924000000,,109710,,2438,924000000,"""map""","""base_link""",,,-9.6062057147,-346.896103535,0.0069342495,,7.3995555122E-05,-8.9666612698E-05,-0.7159942794,-0.6981061369
2438934000000,,109711,,2438,934000000,"""map""","""base_link""",,,-9.6061872982,-346.896118299,0.0069368866,,7.30391696211E-05,-0.000089305,-0.715992126,-0.6981083456
2438944000000,,109712,,2438,944000000,"""map""","""base_link""",,,-9.6061653166,-346.896131839,0.0069320508,,7.36914293118E-05,-8.97081440797E-05,-0.7159861099,-0.6981145156
2438954000000,,109713,,2438,954000000,"""map""","""base_link""",,,-9.6061613237,-346.896146906,0.0069266071,,7.50698340627E-05,-0.000090281,-0.7159788055,-0.6981220067
2438964000000,,109714,,2438,964000000,"""map""","""base_link""",,,-9.6061712881,-346.896164182,0.006926278,,7.60531499727E-05,-9.04343675112E-05,-0.7159742348,-0.6981266942
2438974000000,,109715,,2438,974000000,"""map""","""base_link""",,,-9.6061884171,-346.896181467,0.0069301256,,7.5558223128E-05,-9.00752508982E-05,-0.7159708688,-0.6981301463
2438984000000,,109716,,2438,984000000,"""map""","""base_link""",,,-9.6062295223,-346.896202904,0.006933915,,7.42044423822E-05,-8.94874311748E-05,-0.7159745843,-0.6981263361
2438994000000,,109717,,2438,994000000,"""map""","""base_link""",,,-9.6062158189,-346.896212667,0.0069366609,,7.2770609756E-05,-8.91368055594E-05,-0.715941108,-0.6981606668
2439004000000,,109718,,2439,4000000,"""map""","""base_link""",,,-9.6062102405,-346.896228149,0.0069287431,,7.48629497633E-05,-9.00503416175E-05,-0.7159400047,-0.6981617978
2439014000000,,109719,,2439,14000000,"""map""","""base_link""",,,-9.6061920321,-346.896246096,0.0069244636,,7.63168789174E-05,-9.05165301832E-05,-0.7159384796,-0.6981633615
2439024000000,,109720,,2439,24000000,"""map""","""base_link""",,,-9.6061687532,-346.896261905,0.0069303458,,7.47558031952E-05,-8.97378647424E-05,-0.7159335366,-0.6981684307
2439035000000,,109721,,2439,34000000,"""map""","""base_link""",,,-9.6061627888,-346.896280054,0.0069359221,,7.34645056145E-05,-0.000089069,-0.7159274598,-0.6981746622
2439044000000,,109722,,2439,44000000,"""map""","""base_link""",,,-9.6061699025,-346.896300629,0.0069371389,,7.49239055838E-05,-0.000092095,-0.7159232203,-0.698179009
2439054000000,,109723,,2439,54000000,"""map""","""base_link""",,,-9.606167136,-346.896313863,0.0069393612,,7.20756209919E-05,-9.16313180017E-05,-0.7159198085,-0.6981825078
2439064000000,,109724,,2439,64000000,"""map""","""base_link""",,,-9.6062098667,-346.896334164,0.0069351792,,7.23468417264E-05,-9.10724945692E-05,-0.7159178891,-0.698184476
2439073000000,,109725,,2439,74000000,"""map""","""base_link""",,,-9.6062178345,-346.896350503,0.0069337142,,7.23178321528E-05,-9.04812595193E-05,-0.7159237198,-0.6981784973
2439084000000,,109726,,2439,84000000,"""map""","""base_link""",,,-9.6062108832,-346.896365181,0.0069337738,,7.48813521293E-05,-9.28615269153E-05,-0.7158875308,-0.6982156036
2439094000000,,109727,,2439,94000000,"""map""","""base_link""",,,-9.6061958606,-346.896378316,0.0069320455,,7.53831533844E-05,-9.28577894567E-05,-0.7158863242,-0.6982168406
2439104000000,,109728,,2439,104000000,"""map""","""base_link""",,,-9.606170556,-346.896392914,0.006928381,,7.68534583131E-05,-0.000092064,-0.7158825394,-0.6982207211
2439114000000,,109729,,2439,114000000,"""map""","""base_link""",,,-9.6061581693,-346.896408003,0.0069266344,,0.00007748,-9.17473871504E-05,-0.715875604,-0.6982278319
2439124000000,,109730,,2439,124000000,"""map""","""base_link""",,,-9.6061661869,-346.896423908,0.0069301337,,7.67096150405E-05,-0.000091624,-0.7158703132,-0.6982332565
2439134000000,,109731,,2439,134000000,"""map""","""base_link""",,,-9.6061697486,-346.89643928,0.0069357558,,7.39583652091E-05,-9.04453130614E-05,-0.7158679557,-0.6982356739
2439144000000,,109732,,2439,144000000,"""map""","""base_link""",,,-9.6061992298,-346.896460003,0.0069374969,,7.24879085698E-05,-8.96906236812E-05,-0.7158658344,-0.6982378491
2439154000000,,109733,,2439,154000000,"""map""","""base_link""",,,-9.606218562,-346.896478283,0.0069383849,,7.36785031825E-05,-9.30006852488E-05,-0.7158705342,-0.69823303
2439162000000,,109734,,2439,164000000,"""map""","""base_link""",,,-9.6061943475,-346.896493365,0.0069392277,,7.11902158906E-05,-9.13774038947E-05,-0.7158349528,-0.6982695088
2439174000000,,109735,,2439,174000000,"""map""","""base_link""",,,-9.606196596,-346.896509424,0.0069375115,,7.10271180449E-05,-9.03719229904E-05,-0.7158330425,-0.6982714673
2439184000000,,109736,,2439,184000000,"""map""","""base_link""",,,-9.6061893995,-346.896520954,0.0069317589,,7.25213442074E-05,-8.99253396238E-05,-0.7158317792,-0.6982727623
2439194000000,,109737,,2439,194000000,"""map""","""base_link""",,,-9.6061641471,-346.896531504,0.006926378,,0.000074178,-8.9617541235E-05,-0.7158273168,-0.6982773367
2439204000000,,109738,,2439,204000000,"""map""","""base_link""",,,-9.6061469064,-346.896550825,0.0069265722,,7.49498666999E-05,-8.91064981512E-05,-0.7158204076,-0.6982844195
2439214000000,,109739,,2439,214000000,"""map""","""base_link""",,,-9.6061552698,-346.896568311,0.00693493,,7.59998813969E-05,-9.16605755178E-05,-0.7158137007,-0.6982912943
2439224000000,,109740,,2439,224000000,"""map""","""base_link""",,,-9.6061668135,-346.896583753,0.0069365683,,7.57664787414E-05,-9.14904314228E-05,-0.7158109665,-0.6982940972
2439234000000,,109741,,2439,234000000,"""map""","""base_link""",,,-9.6062135273,-346.896599417,0.0069287315,,7.47255112103E-05,-8.86724631062E-05,-0.7158107947,-0.6982942737
2439244000000,,109742,,2439,244000000,"""map""","""base_link""",,,-9.6062092114,-346.896616426,0.006924263,,7.52623069065E-05,-0.000088651,-0.7158175267,-0.6982873727
2439254000000,,109743,,2439,254000000,"""map""","""base_link""",,,-9.6061961103,-346.896628319,0.0069268305,,7.50908897535E-05,-8.83959425922E-05,-0.7157781642,-0.6983277212
2439264000000,,109744,,2439,264000000,"""map""","""base_link""",,,-9.6061934683,-346.89664424,0.0069303094,,7.47813582562E-05,-8.81668764899E-05,-0.7157766314,-0.6983292924
2439274000000,,109745,,2439,274000000,"""map""","""base_link""",,,-9.6061777474,-346.896662596,0.0069319549,,7.43864698378E-05,-8.82032027298E-05,-0.7157749656,-0.6983309999
2439284000000,,109746,,2439,284000000,"""map""","""base_link""",,,-9.6061565126,-346.896677863,0.0069323785,,7.415461611E-05,-8.85654603183E-05,-0.7157693834,-0.6983367214
2439294000000,,109747,,2439,294000000,"""map""","""base_link""",,,-9.6061507627,-346.896693676,0.006931187,,7.42399089361E-05,-8.88033280954E-05,-0.7157626907,-0.6983435811
2439304000000,,109748,,2439,304000000,"""map""","""base_link""",,,-9.6061588779,-346.896707893,0.0069290015,,7.43064315801E-05,-8.86003492074E-05,-0.7157579086,-0.6983484824
2439314000000,,109749,,2439,314000000,"""map""","""base_link""",,,-9.6061654572,-346.896720591,0.0069260221,,7.50341536698E-05,-8.88342304126E-05,-0.7157528961,-0.6983536198
2439324000000,,109750,,2439,324000000,"""map""","""base_link""",,,-9.606200874,-346.896734485,0.0069262456,,7.5584763191E-05,-8.90734352894E-05,-0.7157512208,-0.6983553367
2439334000000,,109751,,2439,334000000,"""map""","""base_link""",,,-9.6062085766,-346.896753217,0.0069251758,,7.7958860875E-05,-9.03593349629E-05,-0.7157562297,-0.6983502026
2439344000000,,109752,,2439,344000000,"""map""","""base_link""",,,-9.6061949279,-346.896771728,0.0069253208,,7.89648619374E-05,-9.01421094463E-05,-0.7157186464,-0.6983887205
2439354000000,,109753,,2439,354000000,"""map""","""base_link""",,,-9.6061979092,-346.896787303,0.0069305091,,7.65069267423E-05,-9.06088029877E-05,-0.7157173881,-0.6983900102
2439364000000,,109754,,2439,364000000,"""map""","""base_link""",,,-9.6061820733,-346.896804747,0.0069326406,,7.67972769938E-05,-9.10440570765E-05,-0.7157169537,-0.6983904552
2439374000000,,109755,,2439,374000000,"""map""","""base_link""",,,-9.6061515918,-346.896819678,0.0069293195,,7.70556558807E-05,-9.17110767945E-05,-0.7157112993,-0.6983962498
2439384000000,,109756,,2439,384000000,"""map""","""base_link""",,,-9.6061427604,-346.896835535,0.0069255348,,7.5699616727E-05,-8.84067914398E-05,-0.7157037932,-0.6984039425
2439394000000,,109757,,2439,394000000,"""map""","""base_link""",,,-9.6061589922,-346.896849423,0.0069257174,,7.54161502341E-05,-0.000088192,-0.7156983207,-0.6984095505
2439404000000,,109758,,2439,404000000,"""map""","""base_link""",,,-9.6061634914,-346.896870598,0.0069267085,,7.54781043588E-05,-0.000088237,-0.7156968012,-0.6984111077
2439414000000,,109759,,2439,414000000,"""map""","""base_link""",,,-9.6062039851,-346.896885277,0.0069328598,,7.42278902392E-05,-8.7963149021E-05,-0.7156945689,-0.6984133953
2439424000000,,109760,,2439,424000000,"""map""","""base_link""",,,-9.6062054795,-346.896901351,0.0069316503,,0.000074366,-8.8295367016E-05,-0.7157000342,-0.6984077947
2439434000000,,109761,,2439,434000000,"""map""","""base_link""",,,-9.6061978104,-346.8969185,0.0069293208,,7.45888560921E-05,-0.00008875,-0.7156628259,-0.6984459222
2439444000000,,109762,,2439,444000000,"""map""","""base_link""",,,-9.6061895252,-346.896934864,0.0069339651,,7.54755244312E-05,-0.000092419,-0.7156615885,-0.6984471895
2439454000000,,109763,,2439,454000000,"""map""","""base_link""",,,-9.6061677762,-346.896948708,0.0069319478,,7.3945573926E-05,-8.84892335879E-05,-0.7156595553,-0.6984492735
2439464000000,,109764,,2439,464000000,"""map""","""base_link""",,,-9.6061471664,-346.896966241,0.0069261703,,7.731065878E-05,-9.21747511124E-05,-0.7156526103,-0.6984563887
2439474000000,,109765,,2439,474000000,"""map""","""base_link""",,,-9.6061497505,-346.896982056,0.0069281604,,7.70696231659E-05,-9.17574810832E-05,-0.7156460944,-0.698463065
2439484000000,,109766,,2439,484000000,"""map""","""base_link""",,,-9.6061597072,-346.896997966,0.0069319361,,7.62983129027E-05,-9.17384938113E-05,-0.7156424803,-0.6984667681
2439494000000,,109767,,2439,494000000,"""map""","""base_link""",,,-9.6061701191,-346.897013559,0.0069338892,,7.50234213239E-05,-9.12369271881E-05,-0.7156386985,-0.6984706431
2439504000000,,109768,,2439,504000000,"""map""","""base_link""",,,-9.606209403,-346.897030703,0.0069332681,,7.41694581534E-05,-9.07726291631E-05,-0.7156412215,-0.6984680582
2439515000000,,109769,,2439,514000000,"""map""","""base_link""",,,-9.6061889812,-346.897044764,0.0069324157,,7.36537510421E-05,-9.04046249025E-05,-0.7156084562,-0.6985016276
2439524000000,,109770,,2439,524000000,"""map""","""base_link""",,,-9.6061875921,-346.897064168,0.0069323903,,7.34056560808E-05,-8.98681177276E-05,-0.7156057419,-0.6985044085
2439534000000,,109771,,2439,534000000,"""map""","""base_link""",,,-9.6061883939,-346.897077496,0.0069345927,,7.27227251726E-05,-8.92933094431E-05,-0.7156051774,-0.6985049869
2439544000000,,109772,,2439,544000000,"""map""","""base_link""",,,-9.6061655757,-346.897095042,0.0069313595,,7.37703999226E-05,-8.94869054852E-05,-0.7156033737,-0.6985068347
2439554000000,,109773,,2439,554000000,"""map""","""base_link""",,,-9.6061398619,-346.897110891,0.0069321987,,7.56694326198E-05,-9.21354066305E-05,-0.7155965782,-0.6985137959
2439564000000,,109774,,2439,564000000,"""map""","""base_link""",,,-9.6061397606,-346.897118668,0.006935374,,0.0000724,-9.0726191271E-05,-0.715589444,-0.698521105
2439574000000,,109775,,2439,574000000,"""map""","""base_link""",,,-9.6061515879,-346.897085989,0.0069217206,,7.43784404448E-05,-8.81368586146E-05,-0.7155888425,-0.6985217213
2439584000000,,109776,,2439,584000000,"""map""","""base_link""",,,-9.6061745685,-346.897016528,0.0068935003,,8.09496793487E-05,-8.76072606163E-05,-0.7155890929,-0.6985214641
2439594000000,,109777,,2439,594000000,"""map""","""base_link""",,,-9.6062102596,-346.896908849,0.0068866572,,0.000084323,-8.56671204742E-05,-0.7155977029,-0.6985126436
2439604000000,,109778,,2439,604000000,"""map""","""base_link""",,,-9.6061837438,-346.896759491,0.0068977548,,0.000084611,-8.30192582244E-05,-0.7155680354,-0.6985430357
2439614000000,,109779,,2439,614000000,"""map""","""base_link""",,,-9.6061939893,-346.896573711,0.0069052056,,8.43616554862E-05,-8.16919482503E-05,-0.7155700167,-0.6985410063
2439625000000,,109780,,2439,624000000,"""map""","""base_link""",,,-9.6062133503,-346.89634951,0.0069025392,,0.000084683,-8.19061507398E-05,-0.7155779432,-0.6985328863
2439634000000,,109781,,2439,634000000,"""map""","""base_link""",,,-9.606195786,-346.896086137,0.0068979949,,8.50574424818E-05,-8.24808049929E-05,-0.715584946,-0.6985257125
2439644000000,,109782,,2439,644000000,"""map""","""base_link""",,,-9.6061641954,-346.895783759,0.0068976445,,8.49952706681E-05,-8.26197657462E-05,-0.7155847326,-0.6985259311
2439654000000,,109783,,2439,654000000,"""map""","""base_link""",,,-9.6061705522,-346.895444162,0.0068997174,,8.47182264013E-05,-8.24666280357E-05,-0.7155819112,-0.6985288215
2439664000000,,109784,,2439,664000000,"""map""","""base_link""",,,-9.606208254,-346.895067433,0.0069006354,,8.45977692962E-05,-8.23974099122E-05,-0.7155848049,-0.6985258571
2439674000000,,109785,,2439,674000000,"""map""","""base_link""",,,-9.6062215317,-346.894651816,0.0068999678,,8.46670891841E-05,-8.24691368313E-05,-0.7155916363,-0.6985188588
2439684000000,,109786,,2439,684000000,"""map""","""base_link""",,,-9.6062599232,-346.894198728,0.006899289,,0.000084747,-8.25320500331E-05,-0.7155964892,-0.6985138872
2439694000000,,109787,,2439,694000000,"""map""","""base_link""",,,-9.6062715544,-346.893706781,0.0068993715,,8.47445236481E-05,-8.25189202574E-05,-0.7156064309,-0.6985037022
2439704000000,,109788,,2439,704000000,"""map""","""base_link""",,,-9.6062364561,-346.893174958,0.0068997313,,8.47135657555E-05,-0.000082477,-0.7156098813,-0.6985001673
2439714000000,,109789,,2439,714000000,"""map""","""base_link""",,,-9.6062203307,-346.892605144,0.0068998163,,8.47273616928E-05,-8.24705516704E-05,-0.7156049438,-0.6985052258
2439724000000,,109790,,2439,724000000,"""map""","""base_link""",,,-9.6062626889,-346.891998953,0.0068996749,,8.47420630222E-05,-8.24711521473E-05,-0.7156031019,-0.6985071128
2439734000000,,109791,,2439,734000000,"""map""","""base_link""",,,-9.6063092488,-346.891354522,0.0068995655,,8.47857882035E-05,-8.24676300609E-05,-0.7156099048,-0.6985001432
2439744000000,,109792,,2439,744000000,"""map""","""base_link""",,,-9.6063436179,-346.890670688,0.0068996155,,8.47982277014E-05,-8.24463818953E-05,-0.7155788396,-0.698531968
2439754000000,,109793,,2439,754000000,"""map""","""base_link""",,,-9.6063613959,-346.889949709,0.0068996919,,8.47667981006E-05,-8.24635204295E-05,-0.7155879341,-0.6985226514
2439764000000,,109794,,2439,764000000,"""map""","""base_link""",,,-9.6063344609,-346.889189356,0.0068996997,,8.47253290214E-05,-8.25053802048E-05,-0.7155912139,-0.6985192915
2439774000000,,109795,,2439,774000000,"""map""","""base_link""",,,-9.6063229263,-346.888391504,0.0068996701,,8.47042510138E-05,-8.25342990265E-05,-0.7155866594,-0.6985239573
2439784000000,,109796,,2439,784000000,"""map""","""base_link""",,,-9.6063667806,-346.887557765,0.0068996601,,8.47038118225E-05,-8.25379493638E-05,-0.7155845243,-0.6985261446
2439794000000,,109797,,2439,794000000,"""map""","""base_link""",,,-9.606417509,-346.886686839,0.0068996753,,0.000084712,-8.25274741537E-05,-0.7155906585,-0.6985198604
2439804000000,,109798,,2439,804000000,"""map""","""base_link""",,,-9.6064514821,-346.885777759,0.0068996901,,8.47202785476E-05,-8.25165780681E-05,-0.7155962203,-0.6985141627
2439814000000,,109799,,2439,814000000,"""map""","""base_link""",,,-9.606482931,-346.884831136,0.0068996926,,8.47218408273E-05,-8.25155589476E-05,-0.7156049715,-0.6985051974
2439861000000,,109800,,2439,824000000,"""map""","""base_link""",,,-9.6064676783,-346.883845416,0.0068996907,,0.000084721,-8.25179330511E-05,-0.7156099516,-0.6985000954
2439861000000,,109801,,2439,834000000,"""map""","""base_link""",,,-9.6064545009,-346.88282203,0.0068996932,,8.47214282772E-05,-0.000082518,-0.7156063204,-0.6985038155
2439861000000,,109802,,2439,844000000,"""map""","""base_link""",,,-9.6064943821,-346.881762895,0.0068996995,,8.47207086115E-05,-8.2518517516E-05,-0.7156029695,-0.6985072484
2439861000000,,109803,,2439,854000000,"""map""","""base_link""",,,-9.6065539945,-346.880667248,0.0068997049,,8.4719184737E-05,-0.00008252,-0.7156077966,-0.6985023031
2439900000000,,109804,,2439,864000000,"""map""","""base_link""",,,-9.6065845982,-346.879532263,0.0068997078,,8.4719736651E-05,-8.25202156795E-05,-0.7155763177,-0.6985345514
2439900000000,,109805,,2439,874000000,"""map""","""base_link""",,,-9.6066329081,-346.878361696,0.006899711,,8.47203744215E-05,-0.00008252,-0.7155830072,-0.6985276987
2439900000000,,109806,,2439,884000000,"""map""","""base_link""",,,-9.606642535,-346.877152694,0.0068997148,,8.47198793749E-05,-8.25208231405E-05,-0.7155903644,-0.6985201618
2439900000000,,109807,,2439,894000000,"""map""","""base_link""",,,-9.6066280877,-346.875905508,0.0068997191,,8.47215113702E-05,-8.25193342741E-05,-0.7155900474,-0.6985204865
2439915000000,,109808,,2439,904000000,"""map""","""base_link""",,,-9.6066501886,-346.874622194,0.0068997232,,8.4722290581E-05,-8.25187319532E-05,-0.7155855387,-0.6985251054
2439915000000,,109809,,2439,914000000,"""map""","""base_link""",,,-9.6067132824,-346.873303236,0.0068997271,,8.47206192495E-05,-8.25207142616E-05,-0.7155867415,-0.6985238732
2439924000000,,109810,,2439,924000000,"""map""","""base_link""",,,-9.6067564579,-346.871946764,0.0068997307,,8.47198903978E-05,-8.25217831108E-05,-0.7155935868,-0.6985168606
2439934000000,,109811,,2439,934000000,"""map""","""base_link""",,,-9.6068163517,-346.87055376,0.0068997348,,0.000084721,-8.25204887288E-05,-0.715599063,-0.6985112504
2439974000000,,109812,,2439,944000000,"""map""","""base_link""",,,-9.6068419872,-346.869122828,0.0068997387,,8.47206271938E-05,-8.25211511758E-05,-0.7156082667,-0.6985018215
2439974000000,,109813,,2439,954000000,"""map""","""base_link""",,,-9.6068268251,-346.867653462,0.0068997426,,8.47222176569E-05,-8.25197976016E-05,-0.7156098852,-0.6985001634
2439974000000,,109814,,2439,964000000,"""map""","""base_link""",,,-9.6068401691,-346.866147898,0.0068997465,,8.47235257455E-05,-8.25186979882E-05,-0.715604331,-0.6985058535
2439974000000,,109815,,2439,974000000,"""map""","""base_link""",,,-9.6069090451,-346.864607389,0.0068997504,,8.47219089118E-05,-8.25205845253E-05,-0.7156034505,-0.6985067556
2440017000000,,109816,,2439,984000000,"""map""","""base_link""",,,-9.6069712441,-346.863030135,0.0068997542,,8.47203264227E-05,-8.25224878769E-05,-0.7156108527,-0.6984991722
2440017000000,,109817,,2439,994000000,"""map""","""base_link""",,,-9.6070203891,-346.861414538,0.0068997578,,8.47217480533E-05,-8.25216722186E-05,-0.7155787629,-0.6985320465
2440017000000,,109818,,2440,4000000,"""map""","""base_link""",,,-9.6070637894,-346.859763278,0.0068997618,,8.47217358118E-05,-8.25219338299E-05,-0.7155868925,-0.6985237185
2440017000000,,109819,,2440,14000000,"""map""","""base_link""",,,-9.6070669792,-346.858073982,0.0068997656,,8.47223143115E-05,-8.25216141341E-05,-0.7155909382,-0.6985195739
2440060000000,,109820,,2440,24000000,"""map""","""base_link""",,,-9.6070760182,-346.856348044,0.0068997694,,8.47238245644E-05,-8.25203203605E-05,-0.7155876732,-0.6985229187
2440060000000,,109821,,2440,34000000,"""map""","""base_link""",,,-9.6071326015,-346.854587064,0.0068997734,,8.47231902241E-05,-8.25211987168E-05,-0.7155852066,-0.6985254455
2440060000000,,109822,,2440,44000000,"""map""","""base_link""",,,-9.6072030824,-346.852790222,0.0068997772,,8.47215886375E-05,-8.2523101983E-05,-0.7155898873,-0.6985206506
2440060000000,,109823,,2440,54000000,"""map""","""base_link""",,,-9.6072531217,-346.850956269,0.006899781,,8.47223005232E-05,-8.25222502961E-05,-0.7155946772,-0.6985157436
2440107000000,,109824,,2440,64000000,"""map""","""base_link""",,,-9.6073203441,-346.849086521,0.006899785,,8.47225130201E-05,-8.252229946E-05,-0.7156024026,-0.6985078292
2440107000000,,109825,,2440,74000000,"""map""","""base_link""",,,-9.6073396382,-346.847178886,0.0068997888,,8.47224671795E-05,-8.2522619863E-05,-0.7156100316,-0.6985000134
2440107000000,,109826,,2440,84000000,"""map""","""base_link""",,,-9.607337187,-346.845233955,0.0068997925,,8.47245109092E-05,-8.25207934146E-05,-0.7156084806,-0.6985016023
2440107000000,,109827,,2440,94000000,"""map""","""base_link""",,,-9.6073812177,-346.843254082,0.0068997965,,8.47249176686E-05,-8.2520597747E-05,-0.7156032169,-0.6985069949
2440107000000,,109828,,2440,104000000,"""map""","""base_link""",,,-9.6074671066,-346.841239503,0.0068998004,,8.47227654343E-05,-0.000082523,-0.7156053789,-0.69850478
2440115000000,,109829,,2440,114000000,"""map""","""base_link""",,,-9.6075278477,-346.839186969,0.0068998037,,0.000084722,-8.25245923978E-05,-0.7155754943,-0.698535395
2440124000000,,109830,,2440,124000000,"""map""","""base_link""",,,-9.6075990537,-346.837099706,0.0068998077,,8.47233807559E-05,-8.25233231732E-05,-0.7155821295,-0.6985285978
2440166000000,,109831,,2440,134000000,"""map""","""base_link""",,,-9.6076318487,-346.834975167,0.0068998115,,8.47232918178E-05,-8.25236740266E-05,-0.7155900926,-0.6985204402
2440166000000,,109832,,2440,144000000,"""map""","""base_link""",,,-9.6076362764,-346.832813431,0.0068998152,,8.47248201528E-05,-8.25223727213E-05,-0.7155901817,-0.698520349
2440166000000,,109833,,2440,154000000,"""map""","""base_link""",,,-9.6076764675,-346.83061665,0.0068998191,,8.47255805738E-05,-8.25218211245E-05,-0.7155853531,-0.6985252955
2440166000000,,109834,,2440,164000000,"""map""","""base_link""",,,-9.6077618525,-346.82838548,0.006899823,,8.47238443148E-05,-8.25238321267E-05,-0.7155861476,-0.6985244816
2440210000000,,109835,,2440,174000000,"""map""","""base_link""",,,-9.6078295892,-346.826118015,0.0068998267,,8.47229084706E-05,-8.2525075896E-05,-0.7155932777,-0.6985171772
2440210000000,,109836,,2440,184000000,"""map""","""base_link""",,,-9.607910554,-346.823815041,0.0068998306,,8.47240653691E-05,-8.25237659972E-05,-0.7155993301,-0.6985109769
2440210000000,,109837,,2440,194000000,"""map""","""base_link""",,,-9.6079537934,-346.821475134,0.0068998344,,8.4723884855E-05,-8.25242091573E-05,-0.7156085028,-0.6985015796
2440210000000,,109838,,2440,204000000,"""map""","""base_link""",,,-9.6079586328,-346.819097976,0.0068998381,,8.47255513543E-05,-8.25227695135E-05,-0.7156095488,-0.698500508
2440253000000,,109839,,2440,214000000,"""map""","""base_link""",,,-9.6079963139,-346.81668589,0.0068998419,,8.47266838861E-05,-8.25218349432E-05,-0.7156038773,-0.6985063184
2440253000000,,109840,,2440,224000000,"""map""","""base_link""",,,-9.6080885272,-346.814239967,0.0068998458,,8.47249241577E-05,-8.25238599485E-05,-0.7156035604,-0.698506643
2440253000000,,109841,,2440,234000000,"""map""","""base_link""",,,-9.6081692832,-346.811758261,0.0068998495,,8.47234505347E-05,-8.25256497838E-05,-0.7156113021,-0.6984987118
2440253000000,,109842,,2440,244000000,"""map""","""base_link""",,,-9.6082505852,-346.809239783,0.006899853,,8.47246560826E-05,-0.000082525,-0.7155804464,-0.698530322
2440300000000,,109843,,2440,254000000,"""map""","""base_link""",,,-9.6083001336,-346.806685927,0.0068998568,,8.47247360477E-05,-8.25252167066E-05,-0.7155893254,-0.6985212261
2440300000000,,109844,,2440,264000000,"""map""","""base_link""",,,-9.6083125438,-346.804095142,0.0068998605,,8.47261561922E-05,-0.000082524,-0.7155906766,-0.6985198419
2440300000000,,109845,,2440,274000000,"""map""","""base_link""",,,-9.6083543739,-346.801469595,0.0068998643,,8.47272058949E-05,-8.25231759951E-05,-0.7155855789,-0.6985250641
2440300000000,,109846,,2440,284000000,"""map""","""base_link""",,,-9.6084483768,-346.79881038,0.0068998681,,8.47255894571E-05,-8.25250553409E-05,-0.7155851456,-0.698525508
2440300000000,,109847,,2440,294000000,"""map""","""base_link""",,,-9.6085336691,-346.796115717,0.0068998718,,8.47243132185E-05,-8.25266394888E-05,-0.7155922836,-0.6985181957
2440316000000,,109848,,2440,304000000,"""map""","""base_link""",,,-9.6086142568,-346.793363972,0.0068989713,,8.225479976E-05,-0.000080122,-0.7155980471,-0.6985122918
2440316000000,,109849,,2440,314000000,"""map""","""base_link""",,,-9.6086786625,-346.790304567,0.0068794707,,8.26689337161E-05,-8.05267280619E-05,-0.7156068218,-0.6985033022
2440324000000,,109850,,2440,324000000,"""map""","""base_link""",,,-9.6087143393,-346.786862252,0.0068610447,,8.4579222448E-05,-8.23006768269E-05,-0.7156083245,-0.6985017623
2440334000000,,109851,,2440,334000000,"""map""","""base_link""",,,-9.6087840436,-346.783035877,0.0068629685,,8.43864622082E-05,-8.21147095036E-05,-0.7156032653,-0.6985069454
2440374000000,,109852,,2440,344000000,"""map""","""base_link""",,,-9.6089114114,-346.778825901,0.0068721115,,8.33977666875E-05,-8.12066705626E-05,-0.7156024622,-0.6985077685
2440374000000,,109853,,2440,354000000,"""map""","""base_link""",,,-9.6090406115,-346.77423074,0.0068744173,,8.31338718132E-05,-8.09897526384E-05,-0.7156090593,-0.6985010098
2440374000000,,109854,,2440,364000000,"""map""","""base_link""",,,-9.6091577062,-346.769248538,0.0068708473,,8.35085079432E-05,-8.13607806805E-05,-0.7155743213,-0.6985365968
2440374000000,,109855,,2440,374000000,"""map""","""base_link""",,,-9.6093063105,-346.763883171,0.0068684557,,8.37671031961E-05,-8.16018711454E-05,-0.7155811647,-0.6985295864
2440418000000,,109856,,2440,384000000,"""map""","""base_link""",,,-9.6094211888,-346.758131356,0.0068693197,,8.36824341419E-05,-8.15061476277E-05,-0.715588673,-0.6985218947
2440418000000,,109857,,2440,394000000,"""map""","""base_link""",,,-9.6095192723,-346.75199336,0.0068707842,,8.35341482412E-05,-8.13484852085E-05,-0.7155880643,-0.6985225184
2440418000000,,109858,,2440,404000000,"""map""","""base_link""",,,-9.6096645983,-346.745471313,0.0068708919,,8.35255986278E-05,-8.13346292827E-05,-0.7155831644,-0.698527538
2440418000000,,109859,,2440,414000000,"""map""","""base_link""",,,-9.6098606512,-346.738565643,0.0068702219,,8.35950764894E-05,-8.1405373029E-05,-0.7155844433,-0.6985262278
2440465000000,,109860,,2440,424000000,"""map""","""base_link""",,,-9.6100427428,-346.731274311,0.0068699278,,0.000083625,-8.14371778979E-05,-0.7155916345,-0.6985188609
2440465000000,,109861,,2440,434000000,"""map""","""base_link""",,,-9.6102202143,-346.723597281,0.006870145,,8.36037003911E-05,-8.14128476097E-05,-0.7155937811,-0.6985166618
2440465000000,,109862,,2440,444000000,"""map""","""base_link""",,,-9.6104341534,-346.715536136,0.0068703641,,8.35797832734E-05,-8.13912210876E-05,-0.7156003808,-0.6985099008
2440465000000,,109863,,2440,454000000,"""map""","""base_link""",,,-9.610613492,-346.707088549,0.0068703367,,8.35819483348E-05,-0.000081395,-0.7156081991,-0.698501891
2440465000000,,109864,,2440,464000000,"""map""","""base_link""",,,-9.6107731384,-346.698254701,0.0068702198,,8.35963022372E-05,-8.14052183872E-05,-0.7156076967,-0.6985024057
2440512000000,,109865,,2440,474000000,"""map""","""base_link""",,,-9.6109797925,-346.689036798,0.0068701901,,8.36003198551E-05,-8.14075821429E-05,-0.7156024207,-0.6985078109
2440512000000,,109866,,2440,484000000,"""map""","""base_link""",,,-9.6112399722,-346.679435381,0.0068702347,,8.35936788252E-05,-8.14051327893E-05,-0.7156034068,-0.6985068007
2440512000000,,109867,,2440,494000000,"""map""","""base_link""",,,-9.6114873089,-346.669448377,0.0068702639,,8.35894627402E-05,-8.14034820743E-05,-0.7156109038,-0.6984991201
2440512000000,,109868,,2440,504000000,"""map""","""base_link""",,,-9.6117363654,-346.659074756,0.0068702515,,8.35923221923E-05,-8.14037018113E-05,-0.7155755214,-0.6985353675
2440514000000,,109869,,2440,514000000,"""map""","""base_link""",,,-9.6120040998,-346.648317643,0.006870232,,0.000083594,-8.1406334335E-05,-0.715583135,-0.698527568
2440524000000,,109870,,2440,524000000,"""map""","""base_link""",,,-9.6122366035,-346.637174006,0.0068702296,,8.35942508859E-05,-8.14067704727E-05,-0.7155891805,-0.6985213748
2440561000000,,109871,,2440,534000000,"""map""","""base_link""",,,-9.6124656577,-346.62564465,0.0068702371,,8.35953179475E-05,-8.14042927486E-05,-0.7155871322,-0.6985234732
2440561000000,,109872,,2440,544000000,"""map""","""base_link""",,,-9.6127485569,-346.61384156,0.0068793735,,8.59647343843E-05,-8.3720293372E-05,-0.7155825183,-0.6985281992
2440561000000,,109873,,2440,554000000,"""map""","""base_link""",,,-9.613065635,-346.601932084,0.0068978876,,8.42052214451E-05,-8.21583083609E-05,-0.7155869886,-0.6985236202
2440608000000,,109874,,2440,564000000,"""map""","""base_link""",,,-9.613351894,-346.589965372,0.0069052768,,8.41504397886E-05,-8.22084560043E-05,-0.7155948849,-0.6985155309
2440608000000,,109875,,2440,574000000,"""map""","""base_link""",,,-9.6136509769,-346.577974542,0.0069033346,,8.4421512088E-05,-8.24054032619E-05,-0.7156024154,-0.6985078161
2440608000000,,109876,,2440,584000000,"""map""","""base_link""",,,-9.6139117889,-346.565958723,0.0068995078,,0.000084883,-8.27345056913E-05,-0.7156104943,-0.6984995393
2440608000000,,109877,,2440,594000000,"""map""","""base_link""",,,-9.6141497967,-346.553918174,0.0068991821,,8.49618446129E-05,-8.27193858104E-05,-0.7156107506,-0.6984992767
2440608000000,,109878,,2440,604000000,"""map""","""base_link""",,,-9.6144242993,-346.541854875,0.0069009299,,8.4794465285E-05,-8.25211854326E-05,-0.7156068703,-0.6985032521
2440655000000,,109879,,2440,614000000,"""map""","""base_link""",,,-9.6147381496,-346.529769237,0.0069017126,,8.47081536466E-05,-8.24443000097E-05,-0.7156087296,-0.6985013472
2440655000000,,109880,,2440,624000000,"""map""","""base_link""",,,-9.6150312452,-346.517659396,0.0069011503,,8.47587867957E-05,-8.25116057631E-05,-0.7156161139,-0.6984937821
2440655000000,,109881,,2440,634000000,"""map""","""base_link""",,,-9.6153366897,-346.505525055,0.006900573,,8.48144246E-05,-8.25772891168E-05,-0.715583597,-0.6985270945
2440655000000,,109882,,2440,644000000,"""map""","""base_link""",,,-9.6156234094,-346.49336773,0.0069006403,,8.48028711445E-05,-8.25743765997E-05,-0.7155929096,-0.6985175543
2440655000000,,109883,,2440,654000000,"""map""","""base_link""",,,-9.6158649357,-346.481185112,0.0069009444,,8.47695616004E-05,-8.25413645676E-05,-0.7155966515,-0.6985137209
2440698000000,,109884,,2440,664000000,"""map""","""base_link""",,,-9.6161193888,-346.46897855,0.0069010129,,8.4762208565E-05,-8.25171817175E-05,-0.7155924242,-0.6985180516
2440698000000,,109885,,2440,674000000,"""map""","""base_link""",,,-9.6164283863,-346.45675032,0.006900894,,8.48015053971E-05,-8.25252397805E-05,-0.7155901634,-0.6985203676
2440698000000,,109886,,2440,684000000,"""map""","""base_link""",,,-9.6167456923,-346.444498659,0.0069008177,,0.000084806,-0.000082523,-0.7155960322,-0.6985143554
2440698000000,,109887,,2440,694000000,"""map""","""base_link""",,,-9.6170470909,-346.432223026,0.006900851,,8.47998251675E-05,-8.25233061811E-05,-0.7156016148,-0.6985086362
2440704000000,,109888,,2440,704000000,"""map""","""base_link""",,,-9.6173440993,-346.419923996,0.0069009069,,0.000084776,-8.25366458659E-05,-0.7156105935,-0.6984994378
2440714000000,,109889,,2440,714000000,"""map""","""base_link""",,,-9.617592212,-346.407600369,0.0069009288,,8.4744470991E-05,-8.25557776223E-05,-0.7156156086,-0.6984942997
2440724000000,,109890,,2440,724000000,"""map""","""base_link""",,,-9.6178430784,-346.39525318,0.006900904,,8.47387971109E-05,-8.25669246142E-05,-0.7156116982,-0.6984983059
2440764000000,,109891,,2440,734000000,"""map""","""base_link""",,,-9.6181489882,-346.382884379,0.0069008858,,8.4747322732E-05,-8.25626520706E-05,-0.7156082854,-0.6985018023
2440764000000,,109892,,2440,744000000,"""map""","""base_link""",,,-9.6184739242,-346.370493103,0.0069008936,,8.47555585881E-05,-8.25532506793E-05,-0.7156134119,-0.6984965503
2440764000000,,109893,,2440,754000000,"""map""","""base_link""",,,-9.618780165,-346.358076848,0.0069009075,,8.47611594163E-05,-8.25455604076E-05,-0.7155824176,-0.6985283026
2440764000000,,109894,,2440,764000000,"""map""","""base_link""",,,-9.6190835004,-346.345638438,0.0069009117,,8.47619423113E-05,-8.25445938397E-05,-0.7155915728,-0.6985189238
2440811000000,,109895,,2440,774000000,"""map""","""base_link""",,,-9.6193362429,-346.333175081,0.006900909,,8.47599127256E-05,-0.000082548,-0.7155970537,-0.698513309
2440811000000,,109896,,2440,784000000,"""map""","""base_link""",,,-9.6195872083,-346.320688176,0.0069009087,,8.47579386241E-05,-8.25507137157E-05,-0.7155934646,-0.6985169858
2440811000000,,109897,,2440,794000000,"""map""","""base_link""",,,-9.6198934618,-346.308179812,0.0069009128,,8.47546681769E-05,-8.25538862232E-05,-0.7155895775,-0.6985209679
2440811000000,,109898,,2440,804000000,"""map""","""base_link""",,,-9.6202236147,-346.295649299,0.0069009171,,8.47517661418E-05,-8.25566548774E-05,-0.7155942555,-0.6985161755
2440854000000,,109899,,2440,814000000,"""map""","""base_link""",,,-9.6205283684,-346.283094904,0.0069009194,,0.000084753,-8.25552140506E-05,-0.7156005885,-0.6985096876
2440854000000,,109900,,2440,824000000,"""map""","""base_link""",,,-9.6208379359,-346.270517621,0.0069009211,,8.47549181231E-05,-8.25536328485E-05,-0.7156089392,-0.6985011326
2440854000000,,109901,,2440,834000000,"""map""","""base_link""",,,-9.6211001007,-346.257915715,0.0069009232,,0.000084756,-8.25527598381E-05,-0.7156152414,-0.6984946759
2440854000000,,109902,,2440,844000000,"""map""","""base_link""",,,-9.6213528353,-346.245290198,0.0069009259,,8.47577820427E-05,-8.25510527138E-05,-0.7156126543,-0.6984973264
2440854000000,,109903,,2440,854000000,"""map""","""base_link""",,,-9.6216551848,-346.232643177,0.0069009287,,8.47573646441E-05,-8.25515702942E-05,-0.7156084522,-0.6985016314
2440901000000,,109904,,2440,864000000,"""map""","""base_link""",,,-9.621987401,-346.219974344,0.0069009311,,0.000084755,-8.25541631233E-05,-0.7156120526,-0.6984979429
2440901000000,,109905,,2440,874000000,"""map""","""base_link""",,,-9.6222970568,-346.207280804,0.006900933,,8.475469209E-05,-8.2555076574E-05,-0.7155811686,-0.6985295822
2440901000000,,109906,,2440,884000000,"""map""","""base_link""",,,-9.6226157235,-346.194565794,0.0069009355,,8.47554721574E-05,-8.25544760257E-05,-0.7155893516,-0.6985211993
2440901000000,,109907,,2440,894000000,"""map""","""base_link""",,,-9.6228858226,-346.181826333,0.006900938,,8.47556990275E-05,-8.25544211601E-05,-0.7155966819,-0.6985136899
2440904000000,,109908,,2440,904000000,"""map""","""base_link""",,,-9.6231368589,-346.169063124,0.0069009404,,8.47575579024E-05,-8.25526890215E-05,-0.7155949048,-0.6985155104
2440914000000,,109909,,2440,914000000,"""map""","""base_link""",,,-9.6234356822,-346.156278478,0.0069009429,,8.4757781427E-05,-8.25526045407E-05,-0.7155899353,-0.6985206013
2440924000000,,109910,,2440,924000000,"""map""","""base_link""",,,-9.6237735655,-346.143389243,0.0068950655,,0.000081391,-7.93637927086E-05,-0.715593074,-0.6985173867
2440960000000,,109911,,2440,934000000,"""map""","""base_link""",,,-9.6240819599,-346.130140436,0.0068704989,,8.34652655997E-05,-8.1497123562E-05,-0.7156004121,-0.6985098687
2440960000000,,109912,,2440,944000000,"""map""","""base_link""",,,-9.6244221682,-346.11650914,0.006859317,,8.46503481612E-05,-8.26006099107E-05,-0.7156040292,-0.6985061628
2440960000000,,109913,,2440,954000000,"""map""","""base_link""",,,-9.6247552255,-346.102492517,0.006866439,,8.39721379142E-05,-8.18153203964E-05,-0.7156125969,-0.6984973854
2441003000000,,109914,,2440,964000000,"""map""","""base_link""",,,-9.6250535406,-346.088089221,0.0068741332,,0.000083207,-8.09783474111E-05,-0.7156166469,-0.6984932363
2441003000000,,109915,,2440,974000000,"""map""","""base_link""",,,-9.6253682295,-346.073300854,0.0068734569,,8.32944665165E-05,-8.10312035276E-05,-0.7156129924,-0.6984969804
2441003000000,,109916,,2440,984000000,"""map""","""base_link""",,,-9.6257418624,-346.058129063,0.0068695117,,8.37082579992E-05,-8.14414261027E-05,-0.7156106763,-0.6984993531
2441003000000,,109917,,2440,994000000,"""map""","""base_link""",,,-9.6261359925,-346.042572834,0.0068684222,,8.38137298969E-05,-8.1564061266E-05,-0.7156160537,-0.6984938439
2441047000000,,109918,,2441,4000000,"""map""","""base_link""",,,-9.6264986013,-346.026629146,0.0068699346,,0.000083646,-8.14166584518E-05,-0.7155831552,-0.6985275473
2441047000000,,109919,,2441,14000000,"""map""","""base_link""",,,-9.6269067223,-346.010302663,0.0068710036,,8.35284522833E-05,-8.13110595767E-05,-0.7155862066,-0.6985244215
2441047000000,,109920,,2441,24000000,"""map""","""base_link""",,,-9.6273059659,-345.993590784,0.0068706554,,8.35600871287E-05,-8.13524769846E-05,-0.7155953446,-0.6985150601
2441047000000,,109921,,2441,34000000,"""map""","""base_link""",,,-9.6276643894,-345.976492179,0.0068700126,,8.36269374659E-05,-8.14201600703E-05,-0.7155996311,-0.6985106687
2441047000000,,109922,,2441,44000000,"""map""","""base_link""",,,-9.6280380017,-345.959008499,0.0068699489,,8.36345191925E-05,-8.14260815613E-05,-0.7155953022,-0.6985151035
2441090000000,,109923,,2441,54000000,"""map""","""base_link""",,,-9.6284763065,-345.941141604,0.0068702355,,8.36026323257E-05,-8.13983070561E-05,-0.7155921371,-0.698518346
2441091000000,,109924,,2441,64000000,"""map""","""base_link""",,,-9.6289382349,-345.922890435,0.0068703681,,8.35856755139E-05,-8.13878228516E-05,-0.7155976512,-0.6985126971
2441091000000,,109925,,2441,74000000,"""map""","""base_link""",,,-9.6293673074,-345.904252969,0.0068702761,,8.35952304836E-05,-8.13973166575E-05,-0.7156034948,-0.6985067105
2441091000000,,109926,,2441,84000000,"""map""","""base_link""",,,-9.6298343794,-345.885231388,0.0068701781,,8.3606437045E-05,-8.1406802254E-05,-0.7156079525,-0.6985021437
2441094000000,,109927,,2441,94000000,"""map""","""base_link""",,,-9.6302843725,-345.865824119,0.0068701861,,8.36042025987E-05,-8.14075977363E-05,-0.7156159425,-0.6984939579
2441104000000,,109928,,2441,104000000,"""map""","""base_link""",,,-9.6307067875,-345.846030554,0.0068702352,,8.35997178872E-05,-0.000081402,-0.7156181921,-0.6984916532
2441115000000,,109929,,2441,114000000,"""map""","""base_link""",,,-9.6311565855,-345.825852409,0.0068702479,,8.35993644059E-05,-8.1399868655E-05,-0.7156140197,-0.6984959278
2441124000000,,109930,,2441,124000000,"""map""","""base_link""",,,-9.6316616082,-345.805290854,0.0068702277,,0.0000836,-8.14036335534E-05,-0.7156129139,-0.6984970607
2441166000000,,109931,,2441,134000000,"""map""","""base_link""",,,-9.6321745888,-345.784344528,0.0068702134,,8.35996444088E-05,-8.14071415919E-05,-0.7156188137,-0.6984910163
2441166000000,,109932,,2441,144000000,"""map""","""base_link""",,,-9.6326662623,-345.763011075,0.0068702174,,8.35996885509E-05,-8.14065763758E-05,-0.7155839851,-0.6985266972
2441166000000,,109933,,2441,154000000,"""map""","""base_link""",,,-9.633205127,-345.74129509,0.006870226,,8.35990991903E-05,-8.1405394276E-05,-0.7155890174,-0.6985215419
2441166000000,,109934,,2441,164000000,"""map""","""base_link""",,,-9.6337184444,-345.719193218,0.006870227,,8.35975843678E-05,-8.14067516264E-05,-0.7155982669,-0.6985120663
2441210000000,,109935,,2441,174000000,"""map""","""base_link""",,,-9.6341957327,-345.696704791,0.0068702231,,8.3599451283E-05,-8.14056571131E-05,-0.7156002927,-0.6985099909
2441210000000,,109936,,2441,184000000,"""map""","""base_link""",,,-9.6347058223,-345.67383197,0.0068702214,,8.36010751024E-05,-8.14043500082E-05,-0.7155947548,-0.6985156643
2441210000000,,109937,,2441,194000000,"""map""","""base_link""",,,-9.6352815178,-345.650576147,0.0068702227,,8.35991742148E-05,-0.000081406,-0.7155932529,-0.6985172029
2441210000000,,109938,,2441,204000000,"""map""","""base_link""",,,-9.6358630885,-345.626935587,0.0068702239,,8.35969126147E-05,-8.14080737809E-05,-0.7156003423,-0.6985099402
2441258000000,,109939,,2441,214000000,"""map""","""base_link""",,,-9.6364171903,-345.602908908,0.0068702237,,8.35982712322E-05,-8.1406323757E-05,-0.7156047422,-0.6985054325
2441258000000,,109940,,2441,224000000,"""map""","""base_link""",,,-9.6370089412,-345.578498277,0.0068702233,,8.35988875372E-05,-8.14058240324E-05,-0.7156100642,-0.6984999802
