rosbagTimestamp,header,seq,stamp,secs,nsecs,frame_id,pose,position,x,y,z,orientation,qx,qy,qz,qw
2515388000000,,117356,,2515,384000000,"""map""",,,75.3649807301,-257.975181048,0.006902219,,8.19095469103E-05,-0.000086037,-0.6883704297,-0.7253593161
2515394000000,,117357,,2515,394000000,"""map""",,,75.3649912761,-257.975155407,0.0069023067,,8.17568319631E-05,-8.58676350744E-05,-0.6884003107,-0.7253309577
2515404000000,,117358,,2515,404000000,"""map""",,,75.3649814087,-257.975131827,0.0069023027,,8.18955500987E-05,-0.00008601,-0.6883881247,-0.725342523
2515414000000,,117359,,2515,414000000,"""map""",,,75.3649772033,-257.975106637,0.0069022611,,8.18340682423E-05,-8.59413105685E-05,-0.6883819982,-0.7253483373
2515424000000,,117360,,2515,424000000,"""map""",,,75.3649821362,-257.975084891,0.0069023315,,8.18366824009E-05,-8.59293111964E-05,-0.6883707941,-0.7253589703
2515434000000,,117361,,2515,434000000,"""map""",,,75.3649874679,-257.975057983,0.0069022469,,8.18796366703E-05,-8.60012404253E-05,-0.6884012634,-0.7253300534
2515444000000,,117362,,2515,444000000,"""map""",,,75.3649889046,-257.975035657,0.0069023801,,8.17490646328E-05,-8.58391996582E-05,-0.6883882872,-0.7253423688
2515454000000,,117363,,2515,454000000,"""map""",,,75.3649887778,-257.975011684,0.0069022451,,0.00008189,-8.60235228961E-05,-0.6883799297,-0.7253503004
2515464000000,,117364,,2515,464000000,"""map""",,,75.3649811607,-257.974987789,0.0069023144,,8.17681014503E-05,-8.58726366398E-05,-0.6883681706,-0.72536146
2515474000000,,117365,,2515,474000000,"""map""",,,75.3649779987,-257.974962297,0.0069022772,,8.19079235336E-05,-8.6029356422E-05,-0.6884003035,-0.7253309645
2515484000000,,117366,,2515,484000000,"""map""",,,75.3649879204,-257.974938979,0.0069022881,,8.18241065837E-05,-8.59342406206E-05,-0.68838885,-0.7253418346
2515494000000,,117367,,2515,494000000,"""map""",,,75.3649848443,-257.974916643,0.0069023401,,8.18566180843E-05,-8.59676631777E-05,-0.6883796345,-0.7253505806
2515504000000,,117368,,2515,504000000,"""map""",,,75.3649860611,-257.974892936,0.0069023201,,8.18845576968E-05,-8.59924066086E-05,-0.6883680223,-0.7253616007
2515514000000,,117369,,2515,514000000,"""map""",,,75.3649714395,-257.974865853,0.0069023164,,8.17635176263E-05,-8.58667755134E-05,-0.6883992995,-0.7253319174
2515524000000,,117370,,2515,524000000,"""map""",,,75.364985743,-257.974843166,0.0069022203,,8.18864282707E-05,-8.60391646054E-05,-0.6883895137,-0.7253412047
2515534000000,,117371,,2515,534000000,"""map""",,,75.3649798023,-257.974819491,0.0069023491,,8.18052397896E-05,-8.59033941648E-05,-0.688379801,-0.7253504226
2515544000000,,117372,,2515,544000000,"""map""",,,75.3649892979,-257.974798237,0.0069023565,,8.18668674913E-05,-8.59441539161E-05,-0.6883682394,-0.7253613947
2515554000000,,117373,,2515,554000000,"""map""",,,75.3649688605,-257.974768974,0.0069021815,,8.1845637425E-05,-8.59815314733E-05,-0.6883984685,-0.7253327061
2515564000000,,117374,,2515,564000000,"""map""",,,75.3649822933,-257.974748514,0.0069023737,,8.18250846854E-05,-8.59312108682E-05,-0.6883893654,-0.7253413455
2515574000000,,117375,,2515,574000000,"""map""",,,75.3649739426,-257.974723776,0.0069022738,,8.18787601853E-05,-8.59884871749E-05,-0.6883795595,-0.7253506517
2515584000000,,117376,,2515,584000000,"""map""",,,75.3649896939,-257.974702271,0.0069023343,,8.17829301358E-05,-8.58792836658E-05,-0.6883691896,-0.725360493
2515594000000,,117377,,2515,594000000,"""map""",,,75.3649698817,-257.974676102,0.006902312,,8.18795164071E-05,-8.59913922425E-05,-0.6883966646,-0.7253344181
2515605000000,,117378,,2515,604000000,"""map""",,,75.3649784719,-257.974651453,0.0069022104,,8.18319479764E-05,-8.5986369904E-05,-0.6883897255,-0.7253410037
2515614000000,,117379,,2515,614000000,"""map""",,,75.364970133,-257.974629042,0.0069023674,,8.17858466766E-05,-0.000085897,-0.6883784341,-0.7253517198
2515624000000,,117380,,2515,624000000,"""map""",,,75.3649872335,-257.974604678,0.0069021657,,8.18744498171E-05,-8.60259441044E-05,-0.6883706422,-0.7253591145
2515634000000,,117381,,2515,634000000,"""map""",,,75.3649761432,-257.974581416,0.0069023486,,8.17663265648E-05,-8.58698372815E-05,-0.6883575226,-0.7253715648
2515644000000,,117382,,2515,644000000,"""map""",,,75.3649766413,-257.974554853,0.006902274,,8.19120799541E-05,-8.60288863519E-05,-0.6883895443,-0.7253411757
2515654000000,,117383,,2515,654000000,"""map""",,,75.3649726662,-257.974530755,0.0069023337,,8.18012470726E-05,-8.58901004121E-05,-0.6883788685,-0.7253513075
2515664000000,,117384,,2515,664000000,"""map""",,,75.3649816554,-257.974508526,0.0069023169,,8.18771842374E-05,-8.59826727405E-05,-0.6883712329,-0.7253585539
2515674000000,,117385,,2515,674000000,"""map""",,,75.3649839343,-257.974483713,0.0069022396,,8.18505266586E-05,-8.59803998185E-05,-0.6883585319,-0.725370607
2515684000000,,117386,,2515,684000000,"""map""",,,75.3649756551,-257.974458335,0.0069023703,,8.1792766347E-05,-8.58883631142E-05,-0.6883889521,-0.7253417377
2515694000000,,117387,,2515,694000000,"""map""",,,75.364975131,-257.974432792,0.0069021766,,8.18800601584E-05,-8.60274507561E-05,-0.6883792147,-0.725350979
2515704000000,,117388,,2515,704000000,"""map""",,,75.3649742151,-257.974410516,0.006902407,,8.17757549495E-05,-8.58698827963E-05,-0.6883716,-0.7253582055
2515714000000,,117389,,2515,714000000,"""map""",,,75.3649876578,-257.974386255,0.0069022131,,8.18955494915E-05,-8.60322152041E-05,-0.6883599303,-0.7253692799
2515724000000,,117390,,2515,724000000,"""map""",,,75.3649757838,-257.974360167,0.0069023761,,8.17701779397E-05,-8.58696238784E-05,-0.6883889409,-0.7253417484
2515737000000,,117391,,2515,734000000,"""map""",,,75.3649782977,-257.974335706,0.0069022235,,8.19118759175E-05,-8.60516334117E-05,-0.6883791845,-0.7253510076
2515744000000,,117392,,2515,744000000,"""map""",,,75.3649665846,-257.974311386,0.0069023771,,8.17596906373E-05,-8.58509076185E-05,-0.6883714854,-0.7253583143
2515754000000,,117393,,2515,754000000,"""map""",,,75.3649863705,-257.97428958,0.0069022948,,8.19141084803E-05,-8.60193697148E-05,-0.68836109,-0.7253681794
2515764000000,,117394,,2515,764000000,"""map""",,,75.3649751781,-257.974261699,0.0069022452,,8.18276502817E-05,-0.000085942,-0.688389158,-0.7253415423
2515774000000,,117395,,2515,774000000,"""map""",,,75.3649813722,-257.974239958,0.0069023368,,8.18215699884E-05,-8.59291981009E-05,-0.6883789112,-0.725351267
2515784000000,,117396,,2515,784000000,"""map""",,,75.3649618373,-257.974213868,0.0069022431,,8.18837053528E-05,-8.60191041426E-05,-0.6883706118,-0.7253591432
2515794000000,,117397,,2515,794000000,"""map""",,,75.3649813026,-257.974192553,0.0069023901,,8.17417334547E-05,-8.58373974091E-05,-0.6883619844,-0.7253673307
2515804000000,,117398,,2515,804000000,"""map""",,,75.3649743703,-257.974165888,0.0069022459,,0.00008189,-0.00008602,-0.6883890309,-0.7253416629
2515814000000,,117399,,2515,814000000,"""map""",,,75.3649832382,-257.974143252,0.0069023276,,8.17570933001E-05,-8.58566566048E-05,-0.6883793687,-0.7253508328
2515824000000,,117400,,2515,824000000,"""map""",,,75.3649623005,-257.974118152,0.00690221,,8.18907531995E-05,-8.60371060641E-05,-0.6883688927,-0.7253607747
2515835000000,,117401,,2515,834000000,"""map""",,,75.3649745857,-257.974095372,0.0069023361,,8.1787744804E-05,-8.58938284531E-05,-0.6883625942,-0.725366752
2515844000000,,117402,,2515,844000000,"""map""",,,75.3649746322,-257.974073302,0.0069023221,,8.19182156213E-05,-8.60228283782E-05,-0.6883503261,-0.725378394
2515854000000,,117403,,2515,854000000,"""map""",,,75.3649832671,-257.974046994,0.0069022797,,8.18383418726E-05,-8.59481094152E-05,-0.6883802483,-0.7253499981
2515864000000,,117404,,2515,864000000,"""map""",,,75.3649710925,-257.974024605,0.0069023582,,8.18091576436E-05,-8.59073937463E-05,-0.6883679861,-0.725361635
2515874000000,,117405,,2515,874000000,"""map""",,,75.3649817752,-257.97400039,0.0069022133,,8.18507612532E-05,-8.59954641217E-05,-0.6883603994,-0.7253688348
2515884000000,,117406,,2515,884000000,"""map""",,,75.3649706097,-257.973977413,0.0069023509,,8.17229036404E-05,-8.58281472919E-05,-0.6883480338,-0.7253805693
2515894000000,,117407,,2515,894000000,"""map""",,,75.3649766606,-257.973951078,0.0069022011,,8.18667370669E-05,-8.60107954131E-05,-0.6883798084,-0.7253504155
2515904000000,,117408,,2515,904000000,"""map""",,,75.3649736293,-257.973928464,0.0069023528,,8.17441348089E-05,-8.58327600523E-05,-0.6883677873,-0.7253618237
2515914000000,,117409,,2515,914000000,"""map""",,,75.3649765882,-257.973904699,0.0069022116,,8.18860981848E-05,-8.60229275047E-05,-0.6883603995,-0.7253688347
2515924000000,,117410,,2515,924000000,"""map""",,,75.3649754507,-257.973881697,0.0069023301,,8.17736529048E-05,-8.58786743294E-05,-0.6883481454,-0.7253804634
2515934000000,,117411,,2515,934000000,"""map""",,,75.3649719363,-257.973856191,0.0069022754,,8.19182928345E-05,-8.60468754841E-05,-0.6883794087,-0.7253507948
2515944000000,,117412,,2515,944000000,"""map""",,,75.3649758239,-257.973832031,0.006902275,,8.18041145722E-05,-8.59274740061E-05,-0.6883682996,-0.7253613375
2515954000000,,117413,,2515,954000000,"""map""",,,75.3649714968,-257.97380967,0.0069023377,,8.18621021627E-05,-8.59769470233E-05,-0.6883601461,-0.7253690751
2515964000000,,117414,,2515,964000000,"""map""",,,75.3649788033,-257.973785135,0.0069022286,,8.18383470637E-05,-8.59683275263E-05,-0.6883489248,-0.7253797237
2515974000000,,117415,,2515,974000000,"""map""",,,75.3649681661,-257.973760319,0.0069023586,,8.18316260159E-05,-8.59268451836E-05,-0.688378804,-0.7253513688
2515984000000,,117416,,2515,984000000,"""map""",,,75.3649767143,-257.97373568,0.0069021909,,8.18669033689E-05,-8.6001594442E-05,-0.6883688342,-0.7253608302
2515994000000,,117417,,2515,994000000,"""map""",,,75.3649662715,-257.973713171,0.0069023893,,8.17698960581E-05,-8.58667813689E-05,-0.6883598427,-0.7253693631
2516004000000,,117418,,2516,4000000,"""map""",,,75.3649797687,-257.973689671,0.0069022423,,8.18904183362E-05,-8.60225676109E-05,-0.6883496504,-0.7253790352
2516013000000,,117419,,2516,14000000,"""map""",,,75.3649654696,-257.973663809,0.0069023768,,8.17621890008E-05,-0.000085856,-0.688378329,-0.7253518196
2516024000000,,117420,,2516,24000000,"""map""",,,75.3649765909,-257.973640979,0.0069022422,,8.19171969569E-05,-8.60536261364E-05,-0.6883690934,-0.7253605842
2516034000000,,117421,,2516,34000000,"""map""",,,75.3649619231,-257.973616244,0.0069023323,,8.17532446081E-05,-8.58651910202E-05,-0.6883593779,-0.7253698042
2516043000000,,117422,,2516,44000000,"""map""",,,75.3649782063,-257.973594335,0.0069022825,,8.18881959849E-05,-8.6024065329E-05,-0.688350333,-0.7253783875
2516054000000,,117423,,2516,54000000,"""map""",,,75.3649645777,-257.973566711,0.0069022739,,8.18013953048E-05,-8.5918848845E-05,-0.6883777991,-0.7253523224
2516064000000,,117424,,2516,64000000,"""map""",,,75.36497531,-257.973545297,0.0069023155,,8.18641008364E-05,-8.59728843032E-05,-0.6883691414,-0.7253605387
2516074000000,,117425,,2516,74000000,"""map""",,,75.3649607313,-257.973519202,0.0069022124,,8.18441101243E-05,-8.59773889109E-05,-0.6883584212,-0.725370712
2516084000000,,117426,,2516,84000000,"""map""",,,75.364974262,-257.9734982,0.0069023689,,8.17966103547E-05,-8.58993342199E-05,-0.6883506629,-0.7253780744
2516093000000,,117427,,2516,94000000,"""map""",,,75.364967288,-257.973473112,0.0069022267,,8.18728987507E-05,-8.60044889799E-05,-0.6883388216,-0.725389311
2516104000000,,117428,,2516,104000000,"""map""",,,75.3649730798,-257.973448555,0.0069023595,,8.17708393096E-05,-8.58705406321E-05,-0.6883694278,-0.7253602669
2516114000000,,117429,,2516,114000000,"""map""",,,75.3649669849,-257.973423275,0.0069021689,,8.18736563656E-05,-8.60332512387E-05,-0.688358466,-0.7253706695
2516123000000,,117430,,2516,124000000,"""map""",,,75.364969382,-257.973402569,0.006902488,,0.000081849,-8.59630545453E-05,-0.6883510326,-0.7253777235
2516134000000,,117431,,2516,134000000,"""map""",,,75.3649715105,-257.973393216,0.0069036203,,8.160773588E-05,-8.57426686847E-05,-0.6883385537,-0.7253895654
2516144000000,,117432,,2516,144000000,"""map""",,,75.364978909,-257.973382232,0.0069035692,,8.15204695502E-05,-8.5582243024E-05,-0.6883659153,-0.7253636004
2516154000000,,117433,,2516,154000000,"""map""",,,75.3649580397,-257.973362673,0.0069021244,,8.1746784873E-05,-8.58473164939E-05,-0.6883539521,-0.7253749531
2516164000000,,117434,,2516,164000000,"""map""",,,75.3649644559,-257.97334201,0.0069019237,,8.16978145657E-05,-8.58114404006E-05,-0.6883466692,-0.7253818642
2516174000000,,117435,,2516,174000000,"""map""",,,75.3649583988,-257.97331911,0.0069025614,,8.17226368479E-05,-8.58375598202E-05,-0.6883348193,-0.7253931089
2516184000000,,117436,,2516,184000000,"""map""",,,75.3649690197,-257.973291217,0.0069028832,,0.000081691,-8.58250836511E-05,-0.688365419,-0.7253640713
2516194000000,,117437,,2516,194000000,"""map""",,,75.3649620245,-257.973265822,0.006902851,,8.16017850086E-05,-8.57043228982E-05,-0.6883526249,-0.7253762126
2516204000000,,117438,,2516,204000000,"""map""",,,75.3649716765,-257.973239811,0.0069025369,,8.17783943886E-05,-8.59007870794E-05,-0.688343784,-0.7253846021
2516214000000,,117439,,2516,214000000,"""map""",,,75.3649587645,-257.973208924,0.0069025416,,8.1689647197E-05,-8.5797566865E-05,-0.6883712132,-0.7253585726
2516224000000,,117440,,2516,224000000,"""map""",,,75.3649718727,-257.973183752,0.0069027088,,8.17116343778E-05,-8.58099036607E-05,-0.6883618344,-0.725367473
2516234000000,,117441,,2516,234000000,"""map""",,,75.3649635636,-257.973154587,0.006902671,,8.17486389716E-05,-8.58691095635E-05,-0.6883511975,-0.7253775671
2516244000000,,117442,,2516,244000000,"""map""",,,75.3649759687,-257.973128641,0.0069027587,,0.000081629,-8.57229259908E-05,-0.688340216,-0.7253879879
2516254000000,,117443,,2516,254000000,"""map""",,,75.3649633469,-257.973097745,0.006902646,,8.17739396255E-05,-8.58881851003E-05,-0.6883685646,-0.7253610861
2516264000000,,117444,,2516,264000000,"""map""",,,75.3649724585,-257.97306987,0.0069026242,,8.17018112214E-05,-8.58167762489E-05,-0.6883582838,-0.7253708425
2516274000000,,117445,,2516,274000000,"""map""",,,75.3649657896,-257.973042925,0.0069027227,,8.16687213063E-05,-0.000085764,-0.6883484121,-0.7253802104
2516284000000,,117446,,2516,284000000,"""map""",,,75.3649768378,-257.973015223,0.0069026294,,8.17542446057E-05,-0.000085876,-0.6883368789,-0.7253911546
2516294000000,,117447,,2516,294000000,"""map""",,,75.3649686626,-257.972985052,0.0069027216,,8.16466653681E-05,-0.00008574,-0.6883653916,-0.7253640973
2516304000000,,117448,,2516,304000000,"""map""",,,75.3649716324,-257.972958411,0.0069026696,,8.1792640418E-05,-8.59046992512E-05,-0.6883540183,-0.7253748903
2516314000000,,117449,,2516,314000000,"""map""",,,75.3649677176,-257.972929487,0.0069026541,,8.16791364708E-05,-8.57941879677E-05,-0.6883455744,-0.7253829032
2516324000000,,117450,,2516,324000000,"""map""",,,75.3649741168,-257.972904092,0.0069027156,,8.17079286224E-05,-8.58108534731E-05,-0.6883329283,-0.7253949033
2516334000000,,117451,,2516,334000000,"""map""",,,75.3649740127,-257.972872959,0.0069026078,,8.17378478297E-05,-8.58613383256E-05,-0.6883623256,-0.7253670069
2516344000000,,117452,,2516,344000000,"""map""",,,75.3649693224,-257.972846284,0.0069027253,,8.16225321124E-05,-8.57192868746E-05,-0.6883497376,-0.7253789525
2516354000000,,117453,,2516,354000000,"""map""",,,75.3649702489,-257.972818841,0.0069026492,,8.17651342795E-05,-8.58865461506E-05,-0.68834184,-0.7253864468
2516364000000,,117454,,2516,364000000,"""map""",,,75.3649677067,-257.972791259,0.0069026751,,8.16852512202E-05,-0.000085792,-0.6883295284,-0.7253981295
2516374000000,,117455,,2516,374000000,"""map""",,,75.3649778655,-257.972763353,0.0069027142,,8.16721765984E-05,-8.5766886623E-05,-0.6883585341,-0.7253706049
2516384000000,,117456,,2516,384000000,"""map""",,,75.3649654946,-257.972734639,0.0069026138,,8.17488316352E-05,-8.58762158581E-05,-0.6883461871,-0.7253823217
2516394000000,,117457,,2516,394000000,"""map""",,,75.3649727837,-257.972708282,0.0069027134,,8.16366300699E-05,-8.57403091488E-05,-0.6883376099,-0.7253904609
2516403000000,,117458,,2516,404000000,"""map""",,,75.3649639261,-257.972678857,0.0069026763,,8.17581020543E-05,-8.58718269995E-05,-0.6883651333,-0.7253643424
2516414000000,,117459,,2516,414000000,"""map""",,,75.3649794177,-257.972651945,0.0069026432,,8.17159247378E-05,-8.58368353504E-05,-0.6883552951,-0.7253736787
2516424000000,,117460,,2516,424000000,"""map""",,,75.3649676791,-257.972625294,0.0069027379,,8.16456356787E-05,-8.57432934964E-05,-0.6883434621,-0.7253849076
2516434000000,,117461,,2516,434000000,"""map""",,,75.3649754598,-257.972598206,0.0069026341,,8.1766069601E-05,-8.58944520243E-05,-0.6883335801,-0.7253942848
2516444000000,,117462,,2516,444000000,"""map""",,,75.3649643554,-257.9725681,0.0069027201,,8.16290542244E-05,-8.57297176063E-05,-0.6883622593,-0.7253670698
2516454000000,,117463,,2516,454000000,"""map""",,,75.3649788293,-257.972542093,0.0069026315,,8.17618239705E-05,-8.58935945995E-05,-0.6883516075,-0.725377178
2516464000000,,117464,,2516,464000000,"""map""",,,75.3649713326,-257.972514054,0.0069026687,,0.000081673,-8.57826362626E-05,-0.6883410886,-0.7253871599
2516474000000,,117465,,2516,474000000,"""map""",,,75.364976847,-257.972488823,0.0069027078,,8.1693731095E-05,-8.57863307021E-05,-0.6883291107,-0.7253985258
2516484000000,,117466,,2516,484000000,"""map""",,,75.3649672532,-257.972457745,0.006902609,,8.17499341101E-05,-8.58714600245E-05,-0.6883591234,-0.7253700457
2516494000000,,117467,,2516,494000000,"""map""",,,75.3649752983,-257.972432255,0.0069027325,,8.1628632157E-05,-8.57264625287E-05,-0.6883475143,-0.7253810623
2516504000000,,117468,,2516,504000000,"""map""",,,75.3649747508,-257.972405576,0.0069026654,,0.000081765,-8.58876710256E-05,-0.6883382084,-0.7253898929
2516514000000,,117469,,2516,514000000,"""map""",,,75.3649763668,-257.97237843,0.0069026564,,8.16741705941E-05,-8.57913062441E-05,-0.6883254118,-0.7254020357
2516524000000,,117470,,2516,524000000,"""map""",,,75.3649718915,-257.972350246,0.0069027064,,8.16818805084E-05,-8.57838163504E-05,-0.6883549766,-0.7253739809
2516534000000,,117471,,2516,534000000,"""map""",,,75.3649698225,-257.972322672,0.0069026083,,8.17475765429E-05,-8.58719309825E-05,-0.6883437187,-0.725384664
2516543000000,,117472,,2516,544000000,"""map""",,,75.3649763667,-257.972296796,0.006902701,,8.163633647E-05,-8.57448305906E-05,-0.6883349132,-0.7253930198
2516554000000,,117473,,2516,554000000,"""map""",,,75.3649732275,-257.972270899,0.0069026866,,8.17478605026E-05,-8.58644004052E-05,-0.6883216543,-0.7254056011
2516564000000,,117474,,2516,564000000,"""map""",,,75.3649769904,-257.972241201,0.0069026476,,8.17073296645E-05,-8.58287831249E-05,-0.6883513293,-0.7253774421
2516574000000,,117475,,2516,574000000,"""map""",,,75.3649634467,-257.97221506,0.0069027332,,8.16457284724E-05,-8.57428682194E-05,-0.6883394068,-0.7253887558
2516584000000,,117476,,2516,584000000,"""map""",,,75.3649766663,-257.972188666,0.0069026228,,8.17493763331E-05,-8.5877632233E-05,-0.6883314532,-0.725396303
2516594000000,,117477,,2516,594000000,"""map""",,,75.3649708351,-257.972159588,0.0069027011,,8.16195511274E-05,-0.000085723,-0.6883577367,-0.7253713617
2516604000000,,117478,,2516,604000000,"""map""",,,75.3649815436,-257.972134683,0.0069026619,,8.17558618711E-05,-0.000085873,-0.6883472504,-0.7253813127
2516614000000,,117479,,2516,614000000,"""map""",,,75.3649643422,-257.972106275,0.0069026318,,8.16792174693E-05,-0.000085795,-0.6883367328,-0.7253912932
2516624000000,,117480,,2516,624000000,"""map""",,,75.3649757475,-257.972082044,0.0069027038,,8.16756230003E-05,-8.57821596822E-05,-0.6883270496,-0.7254004816
2516634000000,,117481,,2516,634000000,"""map""",,,75.3649606227,-257.972051369,0.0069026135,,8.17371039605E-05,-8.58667306581E-05,-0.6883550314,-0.7253739289
2516644000000,,117482,,2516,644000000,"""map""",,,75.3649734622,-257.972026656,0.0069027312,,8.16181623567E-05,-8.57197499365E-05,-0.688346195,-0.7253823143
2516654000000,,117483,,2516,654000000,"""map""",,,75.3649682431,-257.972000182,0.0069026475,,8.17535432719E-05,-8.58781718637E-05,-0.6883354638,-0.7253924973
2516664000000,,117484,,2516,664000000,"""map""",,,75.364981822,-257.971974392,0.0069026487,,0.000081667,-8.5786288479E-05,-0.6883243065,-0.7254030846
2516674000000,,117485,,2516,674000000,"""map""",,,75.3649669419,-257.971946023,0.0069027024,,8.16835907818E-05,-0.000085789,-0.6883521004,-0.7253767103
2516684000000,,117486,,2516,684000000,"""map""",,,75.3649741022,-257.971919259,0.0069026091,,8.17357867134E-05,-8.58662773549E-05,-0.6883425229,-0.7253857988
2516694000000,,117487,,2516,694000000,"""map""",,,75.3649691314,-257.971893504,0.0069027361,,8.16124404479E-05,-0.000085714,-0.6883330041,-0.7253948314
2516704000000,,117488,,2516,704000000,"""map""",,,75.3649829948,-257.971868347,0.006902648,,8.17487846205E-05,-8.58733446524E-05,-0.6883210206,-0.7254062025
2516715000000,,117489,,2516,714000000,"""map""",,,75.3649738369,-257.971838828,0.0069026643,,8.16605206112E-05,-8.57726439993E-05,-0.688349264,-0.725379402
2516724000000,,117490,,2516,724000000,"""map""",,,75.3649737422,-257.971813949,0.0069026868,,8.17009242423E-05,-8.58103295035E-05,-0.6883378161,-0.7253902652
2516734000000,,117491,,2516,734000000,"""map""",,,75.3649698625,-257.971786358,0.0069026156,,0.000081721,-8.58541249177E-05,-0.6883301086,-0.7253975789
2516744000000,,117492,,2516,744000000,"""map""",,,75.3649791844,-257.97176191,0.0069027368,,8.16072390407E-05,-8.57092105615E-05,-0.6883174411,-0.725409599
2516754000000,,117493,,2516,754000000,"""map""",,,75.3649803901,-257.971733335,0.0069026341,,8.17465946277E-05,-8.5872508586E-05,-0.6883461394,-0.725382367
2516764000000,,117494,,2516,764000000,"""map""",,,75.3649724821,-257.971706663,0.0069026604,,8.16573587196E-05,-0.000085768,-0.6883336659,-0.7253942034
2516774000000,,117495,,2516,774000000,"""map""",,,75.3649715287,-257.971681479,0.0069026823,,8.17134200383E-05,-8.58302991194E-05,-0.6883259692,-0.7254015068
2516784000000,,117496,,2516,784000000,"""map""",,,75.3649714849,-257.971654455,0.0069026336,,8.17044146111E-05,-8.58335156529E-05,-0.688314253,-0.725412624
2516794000000,,117497,,2516,794000000,"""map""",,,75.3649702011,-257.971627212,0.0069027523,,0.000081627,-8.57196028201E-05,-0.6883443851,-0.7253840317
2516804000000,,117498,,2516,804000000,"""map""",,,75.3649724837,-257.971600683,0.0069025878,,8.17436518027E-05,-8.58731078456E-05,-0.6883328869,-0.7253949426
2516814000000,,117499,,2516,814000000,"""map""",,,75.3649782677,-257.971575283,0.0069026776,,8.16206902587E-05,-8.57355945602E-05,-0.6883236003,-0.7254037546
2516824000000,,117500,,2516,824000000,"""map""",,,75.3649712706,-257.971549844,0.0069026692,,8.17413014884E-05,-8.5863895712E-05,-0.6883106745,-0.7254160194
2516834000000,,117501,,2516,834000000,"""map""",,,75.3649751116,-257.971520728,0.0069026384,,8.16887314021E-05,-8.58131478281E-05,-0.6883411489,-0.7253871026
2516844000000,,117502,,2516,844000000,"""map""",,,75.3649661858,-257.971495588,0.0069027209,,8.16477125986E-05,-8.5752566511E-05,-0.6883292465,-0.725398397
2516854000000,,117503,,2516,854000000,"""map""",,,75.3649811526,-257.971469735,0.0069026121,,8.17270945511E-05,-8.58602068483E-05,-0.6883205867,-0.7254066142
2516864000000,,117504,,2516,864000000,"""map""",,,75.3649714668,-257.971441586,0.0069027104,,8.16379425718E-05,-8.57383610642E-05,-0.6883465979,-0.7253819319
2516874000000,,117505,,2516,874000000,"""map""",,,75.3649790613,-257.971417095,0.0069026817,,8.17227325354E-05,-8.58271816334E-05,-0.6883368034,-0.7253912262
2516884000000,,117506,,2516,884000000,"""map""",,,75.3649653323,-257.971389249,0.0069026019,,8.17041803732E-05,-8.58400887561E-05,-0.6883269063,-0.7254006176
2516894000000,,117507,,2516,894000000,"""map""",,,75.3649808145,-257.971365679,0.0069027296,,8.16191003525E-05,-8.57284201672E-05,-0.6883165698,-0.7254104257
2516904000000,,117508,,2516,904000000,"""map""",,,75.3649741058,-257.971336602,0.0069026212,,8.17498361053E-05,-8.58843334529E-05,-0.6883443673,-0.7253840486
2516914000000,,117509,,2516,914000000,"""map""",,,75.3649817509,-257.971311406,0.0069026934,,8.16256972923E-05,-8.57373828626E-05,-0.688332785,-0.7253950393
2516924000000,,117510,,2516,924000000,"""map""",,,75.364968151,-257.971285478,0.0069026732,,8.17313885934E-05,-8.58518852048E-05,-0.6883234361,-0.7254039104
2516934000000,,117511,,2516,934000000,"""map""",,,75.3649779679,-257.971259457,0.0069026236,,8.16972885156E-05,-8.58237675408E-05,-0.688312895,-0.7254139125
2516944000000,,117512,,2516,944000000,"""map""",,,75.3649765832,-257.971232401,0.0069027243,,8.16438827079E-05,-8.57473941747E-05,-0.6883413527,-0.7253869093
2516954000000,,117513,,2516,954000000,"""map""",,,75.3649824975,-257.971206258,0.0069026167,,8.1728718738E-05,-8.58613368654E-05,-0.6883290121,-0.7253986194
2516964000000,,117514,,2516,964000000,"""map""",,,75.3649728006,-257.971180241,0.0069027087,,8.16223436821E-05,-8.57298233327E-05,-0.6883197914,-0.7254073688
2516974000000,,117515,,2516,974000000,"""map""",,,75.3649737686,-257.971155081,0.0069026513,,8.17372257663E-05,-8.58612993264E-05,-0.6883084988,-0.7254180839
2516984000000,,117516,,2516,984000000,"""map""",,,75.3649779218,-257.971126156,0.0069026272,,8.16982678428E-05,-8.583043987E-05,-0.6883385398,-0.7253895785
2516994000000,,117517,,2516,994000000,"""map""",,,75.3649798949,-257.971101869,0.0069027388,,0.000081635,-8.5737747612E-05,-0.6883251035,-0.7254023282
2517004000000,,117518,,2517,4000000,"""map""",,,75.3649785511,-257.971075186,0.0069026248,,8.17381288531E-05,-8.58706018425E-05,-0.688316231,-0.7254107471
2517014000000,,117519,,2517,14000000,"""map""",,,75.3649686052,-257.971048972,0.0069026932,,0.000081622,-8.57321184501E-05,-0.6883042423,-0.7254221226
2517024000000,,117520,,2517,24000000,"""map""",,,75.3649784674,-257.971022057,0.0069026564,,8.1741358498E-05,-8.5861115899E-05,-0.6883347005,-0.7253932217
2517034000000,,117521,,2517,34000000,"""map""",,,75.3649732047,-257.970995186,0.0069026207,,8.16892944192E-05,-0.000085813,-0.6883221253,-0.7254051542
2517044000000,,117522,,2517,44000000,"""map""",,,75.3649835371,-257.97097139,0.0069027208,,8.16442800178E-05,-8.57534456999E-05,-0.688312178,-0.7254145929
2517054000000,,117523,,2517,54000000,"""map""",,,75.3649679477,-257.970941321,0.0069026193,,8.17237493579E-05,-8.58583646081E-05,-0.6883395842,-0.7253885874
2517064000000,,117524,,2517,64000000,"""map""",,,75.3649782299,-257.97091685,0.0069027106,,8.16204949698E-05,-8.57258696465E-05,-0.6883304964,-0.725397211
2517074000000,,117525,,2517,74000000,"""map""",,,75.3649633462,-257.970890487,0.0069026292,,8.17596869867E-05,-8.58892472297E-05,-0.6883190187,-0.725408102
2517084000000,,117526,,2517,84000000,"""map""",,,75.3649744206,-257.970864679,0.0069026504,,8.16609123558E-05,-8.57875958503E-05,-0.6883114162,-0.7254153157
2517094000000,,117527,,2517,94000000,"""map""",,,75.3649708093,-257.970837808,0.0069027174,,8.16841920628E-05,-8.57912208847E-05,-0.6883381705,-0.7253899289
2517104000000,,117528,,2517,104000000,"""map""",,,75.3649849606,-257.970811969,0.0069026002,,8.17168856652E-05,-8.58482932932E-05,-0.6883278624,-0.7253997104
2517114000000,,117529,,2517,114000000,"""map""",,,75.3649681864,-257.970786179,0.0069027167,,0.000081597,-8.57037286583E-05,-0.6883164555,-0.7254105341
2517124000000,,117530,,2517,124000000,"""map""",,,75.3649761815,-257.970760535,0.0069026088,,8.17343475681E-05,-8.58751394093E-05,-0.6883074692,-0.7254190608
2517134000000,,117531,,2517,134000000,"""map""",,,75.3649704801,-257.970732034,0.0069026873,,8.16201013877E-05,-8.57317217484E-05,-0.6883361566,-0.72539184
2517141000000,,117532,,2517,144000000,"""map""",,,75.3649866696,-257.970708425,0.0069026582,,8.17379152003E-05,-8.58583975341E-05,-0.6883243965,-0.7254029991
2517154000000,,117533,,2517,154000000,"""map""",,,75.364974461,-257.970681078,0.0069026224,,8.16845119787E-05,-8.58105030499E-05,-0.6883139181,-0.7254129418
2517164000000,,117534,,2517,164000000,"""map""",,,75.3649770021,-257.970656958,0.0069027155,,8.16431508951E-05,-8.57540513416E-05,-0.6883027449,-0.7254235434
2517174000000,,117535,,2517,174000000,"""map""",,,75.3649712621,-257.970627492,0.0069026153,,8.17211707749E-05,-8.58583736293E-05,-0.6883331913,-0.7253946538
2517184000000,,117536,,2517,184000000,"""map""",,,75.3649834599,-257.970603567,0.0069027224,,8.15931748212E-05,-8.56936568405E-05,-0.688320854,-0.7254063606
2517194000000,,117537,,2517,194000000,"""map""",,,75.3649805211,-257.970577403,0.0069025875,,8.17318829251E-05,-8.58724874396E-05,-0.6883109863,-0.7254157236
2517204000000,,117538,,2517,204000000,"""map""",,,75.3649770114,-257.970551736,0.0069026747,,8.16198642662E-05,-8.57334147694E-05,-0.6882984906,-0.72542758
2517214000000,,117539,,2517,214000000,"""map""",,,75.3649733337,-257.970524144,0.006902657,,0.000081737,-8.58616520707E-05,-0.688329178,-0.725398462
2517224000000,,117540,,2517,224000000,"""map""",,,75.3649766873,-257.970498037,0.0069026305,,8.16809281426E-05,-8.58072675474E-05,-0.6883175347,-0.7254095101
2517234000000,,117541,,2517,234000000,"""map""",,,75.3649699871,-257.970473265,0.006902718,,8.16452051636E-05,-0.000085757,-0.688309013,-0.725417596
2517244000000,,117542,,2517,244000000,"""map""",,,75.3649757344,-257.970447042,0.0069025983,,8.17157662125E-05,-0.000085857,-0.6882978142,-0.7254282217
2517254000000,,117543,,2517,254000000,"""map""",,,75.3649798434,-257.970420122,0.006902718,,0.000081603,-8.57076917018E-05,-0.6883268071,-0.7254007118
2517264000000,,117544,,2517,264000000,"""map""",,,75.364977643,-257.970394432,0.006902613,,8.17396298052E-05,-8.5870908994E-05,-0.6883142088,-0.725412666
2517274000000,,117545,,2517,274000000,"""map""",,,75.3649756444,-257.970368478,0.0069026662,,8.16409307015E-05,-8.57586889454E-05,-0.6883058142,-0.7254206311
2517284000000,,117546,,2517,284000000,"""map""",,,75.3649706034,-257.97034375,0.0069026828,,8.17063469384E-05,-8.5827669963E-05,-0.6882939941,-0.7254318463
2517294000000,,117547,,2517,294000000,"""map""",,,75.3649827533,-257.970315416,0.0069026213,,8.16950912108E-05,-0.000085831,-0.688323999,-0.7254033763
2517304000000,,117548,,2517,304000000,"""map""",,,75.3649740781,-257.970290892,0.0069027361,,8.16224853605E-05,-8.57216054947E-05,-0.6883105762,-0.7254161128
2517314000000,,117549,,2517,314000000,"""map""",,,75.3649804765,-257.970264888,0.0069025836,,8.17324699197E-05,-8.58702115068E-05,-0.6883019812,-0.725424268
2517324000000,,117550,,2517,324000000,"""map""",,,75.3649676546,-257.970236434,0.0069026842,,8.16158353355E-05,-8.57325817747E-05,-0.6883295019,-0.7253981546
2517334000000,,117551,,2517,334000000,"""map""",,,75.3649830283,-257.9702126,0.006902661,,0.000081746,-8.58762597348E-05,-0.6883201802,-0.7254069999
2517344000000,,117552,,2517,344000000,"""map""",,,75.364974661,-257.970185767,0.0069026456,,8.16638303976E-05,-0.000085789,-0.6883087445,-0.7254178508
2517354000000,,117553,,2517,354000000,"""map""",,,75.3649842246,-257.970162337,0.0069027035,,8.16694437938E-05,-0.000085783,-0.6882976235,-0.7254284027
2517364000000,,117554,,2517,364000000,"""map""",,,75.3649698295,-257.970132366,0.0069025991,,8.1720159403E-05,-0.000085858,-0.6883265634,-0.7254009429
2517374000000,,117555,,2517,374000000,"""map""",,,75.3649812121,-257.970108427,0.0069027172,,8.16053449066E-05,-8.57170861623E-05,-0.6883160453,-0.7254109234
2517384000000,,117556,,2517,384000000,"""map""",,,75.3649763878,-257.970082486,0.0069026427,,0.000081736,-8.5869799878E-05,-0.6883062046,-0.7254202607
2517394000000,,117557,,2517,394000000,"""map""",,,75.3649854138,-257.970057458,0.006902668,,0.000081649,-8.57667808987E-05,-0.6882939482,-0.7254318899
2517404000000,,117558,,2517,404000000,"""map""",,,75.36497477,-257.970029872,0.0069026826,,8.17035354856E-05,-8.5821901807E-05,-0.6883228246,-0.7254044907
2517414000000,,117559,,2517,414000000,"""map""",,,75.36497829,-257.970003502,0.0069026169,,8.16978571454E-05,-8.58333883639E-05,-0.6883120277,-0.7254147355
2517424000000,,117560,,2517,424000000,"""map""",,,75.3649774442,-257.969979052,0.0069027289,,0.00008162,-8.57274831867E-05,-0.6883029465,-0.7254233522
2517434000000,,117561,,2517,434000000,"""map""",,,75.3649835303,-257.969953547,0.006902602,,8.17427911557E-05,-8.58824648907E-05,-0.6882903853,-0.7254352703
2517444000000,,117562,,2517,444000000,"""map""",,,75.3649805427,-257.969925437,0.0069026944,,8.16056315399E-05,-0.000085723,-0.6883193094,-0.7254078262
2517489000000,,117563,,2517,454000000,"""map""",,,75.3649748178,-257.969900353,0.0069026632,,8.17388297914E-05,-8.58666637323E-05,-0.6883075195,-0.7254190131
2517489000000,,117564,,2517,464000000,"""map""",,,75.3649779216,-257.96987408,0.0069026303,,0.000081662,-8.57877194363E-05,-0.6882996543,-0.7254264758
2517489000000,,117565,,2517,474000000,"""map""",,,75.3649777086,-257.969850152,0.0069026895,,0.000081678,-8.57922734223E-05,-0.6882866242,-0.7254388388
2517489000000,,117566,,2517,484000000,"""map""",,,75.3649857197,-257.969821644,0.0069025987,,8.17142269504E-05,-8.58534880124E-05,-0.6883158699,-0.7254110898
2517516000000,,117567,,2517,494000000,"""map""",,,75.3649705316,-257.969796163,0.0069027233,,8.15991984516E-05,-8.57112808147E-05,-0.6883032636,-0.7254230513
2517516000000,,117568,,2517,504000000,"""map""",,,75.3649788498,-257.969771004,0.0069026337,,8.17328271249E-05,-0.00008587,-0.6882955084,-0.7254304095
2517516000000,,117569,,2517,514000000,"""map""",,,75.3649727482,-257.969742568,0.0069026647,,8.16404285173E-05,-8.5757752808E-05,-0.6883227348,-0.7254045759
2517524000000,,117570,,2517,524000000,"""map""",,,75.364988537,-257.969719258,0.0069026697,,8.1707609713E-05,-0.00008583,-0.6883120571,-0.7254147076
2517534000000,,117571,,2517,534000000,"""map""",,,75.3649733825,-257.969691756,0.0069026143,,8.16947833682E-05,-0.000085833,-0.6883007804,-0.7254254073
2517574000000,,117572,,2517,544000000,"""map""",,,75.3649799404,-257.969667925,0.0069027293,,8.16196406731E-05,-8.57279447224E-05,-0.6882907878,-0.7254348885
2517574000000,,117573,,2517,554000000,"""map""",,,75.3649716466,-257.969638782,0.0069026012,,8.17410620363E-05,-8.58813876028E-05,-0.688320109,-0.7254070674
2517574000000,,117574,,2517,564000000,"""map""",,,75.3649878382,-257.969614595,0.0069026891,,8.16154867688E-05,-8.57346693952E-05,-0.6883085916,-0.7254179959
2517574000000,,117575,,2517,574000000,"""map""",,,75.3649784935,-257.969589373,0.0069026733,,8.17293940354E-05,-0.000085855,-0.6882977517,-0.7254282811
2517617000000,,117576,,2517,584000000,"""map""",,,75.364980928,-257.969563237,0.0069026236,,0.000081682,-8.58126396701E-05,-0.6882865684,-0.7254388918
2517617000000,,117577,,2517,594000000,"""map""",,,75.3649727439,-257.969535902,0.0069027057,,0.000081641,-8.57557270896E-05,-0.6883163907,-0.7254105956
2517617000000,,117578,,2517,604000000,"""map""",,,75.3649839019,-257.969510442,0.0069026103,,8.17203262714E-05,-8.5861614935E-05,-0.6883050683,-0.7254213389
2517617000000,,117579,,2517,614000000,"""map""",,,75.3649827951,-257.969485439,0.0069027094,,0.000081616,-0.000085728,-0.6882948325,-0.7254310508
2517664000000,,117580,,2517,624000000,"""map""",,,75.3649812583,-257.969460491,0.0069026425,,8.17530624592E-05,-0.000085885,-0.6882821803,-0.7254430551
2517664000000,,117581,,2517,634000000,"""map""",,,75.3649757022,-257.969431294,0.006902645,,8.1658697223E-05,-8.57888774393E-05,-0.68831269,-0.7254141071
2517664000000,,117582,,2517,644000000,"""map""",,,75.3649770764,-257.969407418,0.0069027105,,8.1670864301E-05,-8.57857377081E-05,-0.6883008808,-0.7254253121
2517664000000,,117583,,2517,654000000,"""map""",,,75.364985048,-257.969382135,0.0069026439,,8.17305270766E-05,-8.58538557466E-05,-0.6882918395,-0.7254338906
2517664000000,,117584,,2517,664000000,"""map""",,,75.3649787991,-257.969356527,0.0069026649,,8.16207146078E-05,-8.57400982613E-05,-0.68827829,-0.7254467462
2517707000000,,117585,,2517,674000000,"""map""",,,75.3649804768,-257.969329583,0.0069026638,,8.17234177341E-05,-8.58605060128E-05,-0.6883082075,-0.7254183603
2517707000000,,117586,,2517,684000000,"""map""",,,75.3649685416,-257.969302528,0.0069026314,,8.1680591933E-05,-8.5819414039E-05,-0.6882971167,-0.7254288835
2517707000000,,117587,,2517,694000000,"""map""",,,75.3649849991,-257.96927941,0.0069027201,,8.16371143807E-05,-8.57552726779E-05,-0.688288198,-0.7254373456
2517707000000,,117588,,2517,704000000,"""map""",,,75.3649782434,-257.969250304,0.0069026137,,0.000081719,-8.58580561952E-05,-0.6883144447,-0.7254124421
2517714000000,,117589,,2517,714000000,"""map""",,,75.3649851958,-257.969225945,0.006902706,,8.16163933069E-05,-8.5725462075E-05,-0.6883039233,-0.7254224253
2517724000000,,117590,,2517,724000000,"""map""",,,75.3649682414,-257.969199521,0.0069026247,,8.17529179236E-05,-8.5889933104E-05,-0.6882940431,-0.7254317998
2517764000000,,117591,,2517,734000000,"""map""",,,75.3649828484,-257.969174344,0.0069026519,,8.16544616096E-05,-8.57865231975E-05,-0.6882846325,-0.7254407286
2517764000000,,117592,,2517,744000000,"""map""",,,75.3649794273,-257.969147608,0.006902714,,8.16718575611E-05,-8.57851808239E-05,-0.6883118791,-0.7254148765
2517764000000,,117593,,2517,754000000,"""map""",,,75.36498861,-257.969121861,0.0069026006,,8.17166226469E-05,-8.58537826844E-05,-0.6883001698,-0.7254259868
2517764000000,,117594,,2517,764000000,"""map""",,,75.3649721174,-257.969096047,0.0069027094,,8.16015786022E-05,-8.57163853966E-05,-0.6882903905,-0.7254352654
2517807000000,,117595,,2517,774000000,"""map""",,,75.3649796537,-257.969071013,0.0069026353,,8.17319460056E-05,-8.58713489354E-05,-0.6882803242,-0.7254448161
2517807000000,,117596,,2517,784000000,"""map""",,,75.3649666014,-257.969041942,0.0069026709,,8.16407535937E-05,-8.57623598697E-05,-0.6883096849,-0.7254169585
2517807000000,,117597,,2517,794000000,"""map""",,,75.3649825697,-257.969018642,0.0069026761,,8.17043215013E-05,-8.58302880174E-05,-0.6882993489,-0.7254267656
2517807000000,,117598,,2517,804000000,"""map""",,,75.3649787766,-257.968991854,0.0069026181,,8.16922173505E-05,-0.000085832,-0.688289061,-0.7254365268
2517855000000,,117599,,2517,814000000,"""map""",,,75.3649848251,-257.968968378,0.006902739,,8.16185757411E-05,-8.57236993261E-05,-0.6882765082,-0.7254484367
2517855000000,,117600,,2517,824000000,"""map""",,,75.3649723578,-257.968938307,0.0069025662,,8.17136186352E-05,-8.58619153895E-05,-0.6883066779,-0.7254198116
2517855000000,,117601,,2517,834000000,"""map""",,,75.3649793179,-257.968914235,0.0069027007,,0.000081604,-8.57184405089E-05,-0.688295635,-0.7254302894
2517855000000,,117602,,2517,844000000,"""map""",,,75.3649816641,-257.968888869,0.0069026215,,8.17378339703E-05,-8.58756702992E-05,-0.688286591,-0.7254388703
2517855000000,,117603,,2517,854000000,"""map""",,,75.3649856341,-257.968863586,0.0069026625,,8.1646768596E-05,-8.57718277722E-05,-0.6882732386,-0.7254515387
2517903000000,,117604,,2517,864000000,"""map""",,,75.3649792428,-257.96883643,0.006902695,,8.16953531307E-05,-0.000085818,-0.6883025929,-0.7254236876
2517903000000,,117605,,2517,874000000,"""map""",,,75.3649742586,-257.968809699,0.0069026223,,8.16947865633E-05,-8.58317410713E-05,-0.6882916937,-0.7254340289
2517903000000,,117606,,2517,884000000,"""map""",,,75.3649819587,-257.968785688,0.0069027102,,0.000081615,-8.5729556086E-05,-0.6882832492,-0.725442041
2517903000000,,117607,,2517,894000000,"""map""",,,75.3649820412,-257.96876023,0.0069026165,,8.17410588681E-05,-8.5881204337E-05,-0.6882700215,-0.7254545909
2517904000000,,117608,,2517,904000000,"""map""",,,75.3649859082,-257.968732473,0.0069026777,,8.16377594624E-05,-8.57632221551E-05,-0.6882988933,-0.7254271979
2517914000000,,117609,,2517,914000000,"""map""",,,75.364969139,-257.96870697,0.0069026902,,8.17027212491E-05,-8.58305587082E-05,-0.6882872076,-0.7254382853
2517924000000,,117610,,2517,924000000,"""map""",,,75.3649810604,-257.96868116,0.0069026267,,8.1692506774E-05,-8.58328839627E-05,-0.6882797423,-0.7254453683
2517967000000,,117611,,2517,934000000,"""map""",,,75.3649782293,-257.968654313,0.0069027173,,8.16165784521E-05,-8.57241155219E-05,-0.688306039,-0.7254204178
2517967000000,,117612,,2517,944000000,"""map""",,,75.3649909708,-257.968629451,0.0069026072,,0.000081742,-8.58818647123E-05,-0.6882952975,-0.7254306097
2517967000000,,117613,,2517,954000000,"""map""",,,75.3649716813,-257.968602962,0.0069027001,,8.16027202202E-05,-0.00008572,-0.6882841549,-0.7254411817
2517967000000,,117614,,2517,964000000,"""map""",,,75.3649802407,-257.968577875,0.0069026091,,8.17269346857E-05,-8.58834352352E-05,-0.688275367,-0.7254495193
2518014000000,,117615,,2517,974000000,"""map""",,,75.3649662036,-257.968548905,0.0069026848,,8.16387045582E-05,-8.57600739069E-05,-0.6883033741,-0.7254229464
2518014000000,,117616,,2517,984000000,"""map""",,,75.3649824875,-257.968525434,0.006902676,,0.000081708,-8.58293757611E-05,-0.6882944622,-0.7254314022
2518014000000,,117617,,2517,994000000,"""map""",,,75.3649770155,-257.968498658,0.0069026204,,8.16955331552E-05,-8.58311233285E-05,-0.6882832329,-0.7254420565
2518014000000,,117618,,2518,4000000,"""map""",,,75.3649873041,-257.968475084,0.0069027222,,8.16131488335E-05,-8.57231689479E-05,-0.6882718217,-0.725452883
2518014000000,,117619,,2518,14000000,"""map""",,,75.3649711857,-257.96844575,0.0069026121,,8.17392376201E-05,-8.58802608906E-05,-0.6883007398,-0.7254254459
2518056000000,,117620,,2518,24000000,"""map""",,,75.3649814703,-257.968421113,0.0069026882,,8.16181309524E-05,-8.57397911635E-05,-0.6882908105,-0.7254348669
2518056000000,,117621,,2518,34000000,"""map""",,,75.364978745,-257.968396441,0.0069026714,,8.17201733154E-05,-8.58515592221E-05,-0.6882809118,-0.7254442586
2518056000000,,117622,,2518,44000000,"""map""",,,75.3649897536,-257.968371154,0.0069026244,,8.16860518285E-05,-8.58236088161E-05,-0.6882685879,-0.725455951
2518056000000,,117623,,2518,54000000,"""map""",,,75.3649778363,-257.968343878,0.006902721,,8.16334368686E-05,-8.57483674959E-05,-0.6882970498,-0.725428947
2518064000000,,117624,,2518,64000000,"""map""",,,75.3649791966,-257.968317838,0.0069026126,,0.000081713,-8.58570709759E-05,-0.6882865764,-0.7254388842
2518074000000,,117625,,2518,74000000,"""map""",,,75.3649788607,-257.968292981,0.0069027035,,8.16120934499E-05,-8.57308011335E-05,-0.6882779941,-0.7254470269
2518116000000,,117626,,2518,84000000,"""map""",,,75.3649878011,-257.968268487,0.0069026162,,8.17486244822E-05,-8.58957211438E-05,-0.6882651982,-0.7254591669
2518116000000,,117627,,2518,94000000,"""map""",,,75.3649851065,-257.968239885,0.0069026595,,8.16508565126E-05,-8.57858459762E-05,-0.68829383,-0.7254320021
2518116000000,,117628,,2518,104000000,"""map""",,,75.3649766653,-257.968215368,0.0069027181,,8.1670249973E-05,-8.57846955322E-05,-0.688281767,-0.7254434473
2518116000000,,117629,,2518,114000000,"""map""",,,75.3649787382,-257.968188879,0.0069025945,,8.17151578429E-05,-8.58577105217E-05,-0.6882746148,-0.725450233
2518132000000,,117630,,2518,124000000,"""map""",,,75.3649808307,-257.968164653,0.0069027112,,0.000081596,-8.5712729092E-05,-0.688261757,-0.7254624317
2518134000000,,117631,,2518,134000000,"""map""",,,75.3649910195,-257.968137379,0.0069026283,,8.17296480184E-05,-8.587067766E-05,-0.6882904213,-0.7254352362
2518175000000,,117632,,2518,144000000,"""map""",,,75.3649736711,-257.96811081,0.0069026768,,8.16094373377E-05,-8.57288958159E-05,-0.6882777314,-0.7254472762
2518175000000,,117633,,2518,154000000,"""map""",,,75.3649836166,-257.968092407,0.0069030562,,8.19245348702E-05,-8.62126102025E-05,-0.6882780095,-0.7254470121
2518175000000,,117634,,2518,164000000,"""map""",,,75.3650243759,-257.968111482,0.0069058669,,8.12737978485E-05,-8.6376443619E-05,-0.6882824185,-0.7254428291
2518175000000,,117635,,2518,174000000,"""map""",,,75.3650569742,-257.96816727,0.0069074373,,8.05296574428E-05,-0.000086764,-0.6883120856,-0.7254146806
2518219000000,,117636,,2518,184000000,"""map""",,,75.3650514025,-257.968261748,0.0069067367,,8.10057203112E-05,-8.64511232192E-05,-0.6882978552,-0.7254281829
2518219000000,,117637,,2518,194000000,"""map""",,,75.3650087897,-257.968391887,0.0069057613,,8.18622185561E-05,-8.58376180747E-05,-0.6882878392,-0.7254376861
2518219000000,,117638,,2518,204000000,"""map""",,,75.3649960414,-257.968559611,0.0069057503,,0.000082206,-8.55157559054E-05,-0.6883244889,-0.7254029115
2518219000000,,117639,,2518,214000000,"""map""",,,75.3649983512,-257.968769848,0.0069062136,,0.000082116,-8.5508519834E-05,-0.6883149814,-0.7254119329
2518260000000,,117640,,2518,224000000,"""map""",,,75.3649827478,-257.969017293,0.0069063818,,8.19454191886E-05,-8.56374696013E-05,-0.6883066827,-0.7254198071
2518260000000,,117641,,2518,234000000,"""map""",,,75.3649623485,-257.969303041,0.0069062164,,8.18391882939E-05,-8.57743418801E-05,-0.6882961453,-0.7254298053
2518260000000,,117642,,2518,244000000,"""map""",,,75.3649538017,-257.969625394,0.0069060738,,8.17806321059E-05,-8.58617295548E-05,-0.6883272026,-0.7254003364
2518260000000,,117643,,2518,254000000,"""map""",,,75.3649228614,-257.969987289,0.006906101,,0.000081745,-8.58916456326E-05,-0.6883162372,-0.7254107413
2518303000000,,117644,,2518,264000000,"""map""",,,75.3649091095,-257.970388452,0.006906178,,8.17272850258E-05,-8.58932157917E-05,-0.6883091167,-0.7254174976
2518303000000,,117645,,2518,274000000,"""map""",,,75.3648749994,-257.970824237,0.0069061895,,0.00008173,-8.58901338718E-05,-0.6883378254,-0.7253902564
2518303000000,,117646,,2518,284000000,"""map""",,,75.3648633869,-257.971302153,0.0069061547,,8.17372814877E-05,-8.58909494618E-05,-0.6883295569,-0.7253981025
2518303000000,,117647,,2518,294000000,"""map""",,,75.3648247614,-257.971816517,0.0069061336,,0.000081742,-8.58906577923E-05,-0.6883196744,-0.7254074798
2518317000000,,117648,,2518,304000000,"""map""",,,75.3648044594,-257.972370229,0.0069061405,,8.17419263524E-05,-8.58901652144E-05,-0.6883106178,-0.7254160733
2518317000000,,117649,,2518,314000000,"""map""",,,75.3647612996,-257.972958017,0.0069061497,,0.000081742,-8.5889479315E-05,-0.6883403219,-0.7253878874
2518324000000,,117650,,2518,324000000,"""map""",,,75.3647398145,-257.973587848,0.0069061478,,8.17433014107E-05,-0.000085891,-0.68833088,-0.725396847
2518334000000,,117651,,2518,334000000,"""map""",,,75.364696829,-257.974254212,0.0069061403,,8.17443679064E-05,-8.58916980525E-05,-0.6883219445,-0.7254053258
2518379000000,,117652,,2518,344000000,"""map""",,,75.3646667153,-257.974959656,0.006906138,,8.17545803503E-05,-8.58993933978E-05,-0.6883112616,-0.7254154624
2518379000000,,117653,,2518,354000000,"""map""",,,75.3646325439,-257.975700622,0.0069061546,,8.17661985434E-05,-8.5868190878E-05,-0.6883402801,-0.725387927
2518379000000,,117654,,2518,364000000,"""map""",,,75.3645845131,-257.976481476,0.0069061566,,8.1831831421E-05,-8.57892030336E-05,-0.6883271939,-0.7254003447
2518379000000,,117655,,2518,374000000,"""map""",,,75.3645475631,-257.977300649,0.0069061128,,8.18508438642E-05,-8.57778177667E-05,-0.6883172604,-0.7254097704
2518422000000,,117656,,2518,384000000,"""map""",,,75.364483912,-257.978153374,0.006906086,,8.17842940694E-05,-8.58463678422E-05,-0.6883445,-0.7253839227
2518422000000,,117657,,2518,394000000,"""map""",,,75.3644473333,-257.979047918,0.0069060918,,8.16981206051E-05,-8.59257662491E-05,-0.6883360854,-0.7253919075
2518422000000,,117658,,2518,404000000,"""map""",,,75.3643920978,-257.979978985,0.0069061015,,8.16605772409E-05,-8.59575521742E-05,-0.6883253593,-0.7254020855
2518422000000,,117659,,2518,414000000,"""map""",,,75.3643535489,-257.980948818,0.0069060985,,8.16721391868E-05,-8.59462234126E-05,-0.6883142028,-0.7254126716
2518464000000,,117660,,2518,424000000,"""map""",,,75.3642963752,-257.981952453,0.0069060879,,0.000081698,-8.59235096344E-05,-0.688341966,-0.7253863273
2518464000000,,117661,,2518,434000000,"""map""",,,75.3642399258,-257.982996195,0.0069060818,,8.17103801333E-05,-0.000085912,-0.6883296545,-0.7253980098
2518464000000,,117662,,2518,444000000,"""map""",,,75.3641851518,-257.984077315,0.0069060803,,8.17072775471E-05,-8.59134266442E-05,-0.6883204363,-0.7254067568
2518464000000,,117663,,2518,454000000,"""map""",,,75.3641167818,-257.985195153,0.0069060783,,8.17025823365E-05,-8.59172652634E-05,-0.6883076601,-0.7254188797
2518464000000,,117664,,2518,464000000,"""map""",,,75.3640587452,-257.98634833,0.0069060736,,8.17006128142E-05,-8.59197641605E-05,-0.6883378622,-0.7253902215
2518508000000,,117665,,2518,474000000,"""map""",,,75.3639852842,-257.987540438,0.0069060687,,8.17022936343E-05,-8.59181357911E-05,-0.6883262829,-0.7254012091
2518508000000,,117666,,2518,484000000,"""map""",,,75.363933048,-257.988771096,0.006906065,,8.17021600125E-05,-8.59172231947E-05,-0.6883174757,-0.7254095661
2518508000000,,117667,,2518,494000000,"""map""",,,75.3638548744,-257.99003497,0.0069060608,,8.17033184458E-05,-8.59168170666E-05,-0.6883439851,-0.7253844113
2518508000000,,117668,,2518,504000000,"""map""",,,75.3637933061,-257.991339447,0.0069060575,,8.17015965683E-05,-8.59179309192E-05,-0.6883346273,-0.7253932911
2518514000000,,117669,,2518,514000000,"""map""",,,75.3637085076,-257.992679515,0.0069060536,,8.17009349728E-05,-8.59175326627E-05,-0.6883246616,-0.7254027476
2518524000000,,117670,,2518,524000000,"""map""",,,75.363649454,-257.994058429,0.0069060499,,8.17007754649E-05,-8.59174540325E-05,-0.6883148859,-0.7254120234
2518564000000,,117671,,2518,534000000,"""map""",,,75.3635662794,-257.995470352,0.0069060453,,8.17018873996E-05,-8.59169121005E-05,-0.6883427054,-0.7253856256
2518564000000,,117672,,2518,544000000,"""map""",,,75.3634968451,-257.996922683,0.0069060418,,8.17015810119E-05,-0.000085917,-0.6883317968,-0.725395977
2518564000000,,117673,,2518,554000000,"""map""",,,75.3634185527,-257.998411283,0.0069060382,,8.170059768E-05,-8.59168403264E-05,-0.6883221801,-0.7254051023
2518564000000,,117674,,2518,564000000,"""map""",,,75.3633375504,-257.999936837,0.0069060345,,0.000081701,-8.59162104647E-05,-0.6883090723,-0.7254175397
2518607000000,,117675,,2518,574000000,"""map""",,,75.3632601875,-258.001496865,0.0069060301,,0.000081701,-8.59167562444E-05,-0.6883374626,-0.7253906006
2518607000000,,117676,,2518,584000000,"""map""",,,75.3631558253,-258.003094441,0.0069060263,,8.17012242889E-05,-8.591635535E-05,-0.6883254846,-0.7254019667
2518607000000,,117677,,2518,594000000,"""map""",,,75.3630759475,-258.004730167,0.0069060228,,8.16996609249E-05,-8.59167600432E-05,-0.6883181837,-0.7254088943
2518607000000,,117678,,2518,604000000,"""map""",,,75.3629831872,-258.006399545,0.0069060183,,8.17013602648E-05,-8.59159137424E-05,-0.6883455178,-0.7253829568
2518655000000,,117679,,2518,614000000,"""map""",,,75.362908158,-258.008109243,0.0069060148,,8.1700807448E-05,-0.000085916,-0.6883347569,-0.7253931682
2518655000000,,117680,,2518,624000000,"""map""",,,75.3628090336,-258.009853961,0.0069060111,,0.0000817,-8.59156332293E-05,-0.6883235693,-0.725403784
2518655000000,,117681,,2518,634000000,"""map""",,,75.3627148274,-258.011635668,0.0069060075,,8.16998336708E-05,-8.59156108106E-05,-0.688311555,-0.725415184
2518655000000,,117682,,2518,644000000,"""map""",,,75.3626179943,-258.013451113,0.0069060032,,8.16999440728E-05,-0.000085916,-0.6883408993,-0.7253873395
2518655000000,,117683,,2518,654000000,"""map""",,,75.3625166975,-258.015305428,0.0069059995,,8.17005451875E-05,-8.59152384637E-05,-0.6883283285,-0.7253992681
2518698000000,,117684,,2518,664000000,"""map""",,,75.3624151481,-258.017195928,0.0069059959,,8.16990823003E-05,-8.59155798098E-05,-0.6883197605,-0.7254073982
2518698000000,,117685,,2518,674000000,"""map""",,,75.3623053367,-258.019122499,0.0069059921,,8.16994803287E-05,-0.000085915,-0.6883078011,-0.7254187459
2518698000000,,117686,,2518,684000000,"""map""",,,75.362209374,-258.021083714,0.0069059879,,8.16994759011E-05,-8.59155105966E-05,-0.6883378309,-0.7253902512
2518698000000,,117687,,2518,694000000,"""map""",,,75.3620936211,-258.023082598,0.0069059841,,8.17000710334E-05,-8.591471583E-05,-0.6883255462,-0.7254019082
2518703000000,,117688,,2518,704000000,"""map""",,,75.3619940168,-258.025118637,0.0069059807,,8.16986320639E-05,-0.000085915,-0.6883167985,-0.7254102086
2518713000000,,117689,,2518,714000000,"""map""",,,75.3618712047,-258.027187032,0.0069059761,,8.17003026538E-05,-8.59142211802E-05,-0.6883441743,-0.7253842317
2518724000000,,117690,,2518,724000000,"""map""",,,75.3617710815,-258.029295487,0.0069059727,,8.16989072506E-05,-8.59150664065E-05,-0.6883351127,-0.7253928305
2518762000000,,117691,,2518,734000000,"""map""",,,75.3616469794,-258.031438552,0.006905969,,8.16988769896E-05,-8.5914053316E-05,-0.6883244337,-0.7254029638
2518762000000,,117692,,2518,744000000,"""map""",,,75.3615421993,-258.033619016,0.0069059655,,8.16978767191E-05,-8.59147560962E-05,-0.6883141584,-0.7254127138
2518762000000,,117693,,2518,754000000,"""map""",,,75.3614250962,-258.03583225,0.0069059612,,8.16984750784E-05,-8.59147182702E-05,-0.6883423231,-0.7253859884
2518810000000,,117694,,2518,764000000,"""map""",,,75.3613081254,-258.038084125,0.0069059576,,8.1699225826E-05,-8.59137934166E-05,-0.6883293416,-0.7253983068
2518810000000,,117695,,2518,774000000,"""map""",,,75.361186181,-258.040371418,0.0069059541,,8.16980982052E-05,-8.59138170706E-05,-0.6883196221,-0.7254075294
2518810000000,,117696,,2518,784000000,"""map""",,,75.3610490525,-258.042693758,0.0069059503,,8.1698323045E-05,-8.59133698891E-05,-0.6883074531,-0.725419076
2518810000000,,117697,,2518,794000000,"""map""",,,75.360928586,-258.045050367,0.0069059462,,0.000081698,-8.59142442431E-05,-0.6883384545,-0.7253896595
2518810000000,,117698,,2518,804000000,"""map""",,,75.3607964996,-258.04744475,0.0069059425,,8.1698708635E-05,-8.59133152921E-05,-0.6883265429,-0.7254009624
2518854000000,,117699,,2518,814000000,"""map""",,,75.3606805392,-258.049875882,0.0069059391,,8.16975678473E-05,-8.59133454442E-05,-0.6883168656,-0.725410145
2518854000000,,117700,,2518,824000000,"""map""",,,75.3605434473,-258.052338981,0.0069059346,,8.16982776121E-05,-8.59131912669E-05,-0.6883439419,-0.7253844523
2518854000000,,117701,,2518,834000000,"""map""",,,75.360415904,-258.054840903,0.0069059312,,0.000081698,-8.59132194607E-05,-0.6883322258,-0.7253955699
2518854000000,,117702,,2518,844000000,"""map""",,,75.3602772382,-258.057377584,0.0069059277,,0.000081697,-8.59131558667E-05,-0.6883226773,-0.7254046304
2518854000000,,117703,,2518,854000000,"""map""",,,75.3601398779,-258.059950167,0.0069059241,,8.16974252774E-05,-8.59125138044E-05,-0.6883100689,-0.7254165941
2518896000000,,117704,,2518,864000000,"""map""",,,75.3599960543,-258.062555169,0.0069059198,,8.16972389409E-05,-8.59132563788E-05,-0.6883400129,-0.7253881806
2518896000000,,117705,,2518,874000000,"""map""",,,75.3598533763,-258.065198416,0.0069059162,,8.16976354564E-05,-8.59126424201E-05,-0.688328506,-0.7253990997
2518896000000,,117706,,2518,884000000,"""map""",,,75.3597159392,-258.067877314,0.0069059128,,8.1696481987E-05,-8.59126844045E-05,-0.6883199271,-0.7254072401
2518896000000,,117707,,2518,894000000,"""map""",,,75.3595662321,-258.070591091,0.0069059091,,8.16970635263E-05,-8.59118998556E-05,-0.6883070508,-0.7254194578
2518904000000,,117708,,2518,904000000,"""map""",,,75.3594233906,-258.073338006,0.0069059049,,8.16967787219E-05,-8.59127362905E-05,-0.6883369509,-0.7253910862
2518916000000,,117709,,2518,914000000,"""map""",,,75.3592624883,-258.076121663,0.0069059013,,8.1697131324E-05,-8.59121744797E-05,-0.6883256463,-0.7254018132
2518924000000,,117710,,2518,924000000,"""map""",,,75.3591254299,-258.078942056,0.006905898,,8.169591905E-05,-8.59122590251E-05,-0.6883174607,-0.7254095804
2518965000000,,117711,,2518,934000000,"""map""",,,75.3589659655,-258.081793969,0.0069058935,,8.16974566946E-05,-8.59115902232E-05,-0.6883440921,-0.7253843097
2518965000000,,117712,,2518,944000000,"""map""",,,75.3588216338,-258.084684455,0.0069058901,,8.16965045273E-05,-0.000085912,-0.6883342621,-0.7253936377
2518965000000,,117713,,2518,954000000,"""map""",,,75.3586619785,-258.087609082,0.0069058866,,8.16958006893E-05,-8.59116152657E-05,-0.6883242443,-0.7254031436
2518965000000,,117714,,2518,964000000,"""map""",,,75.3585127903,-258.090569712,0.0069058832,,8.16960753201E-05,-8.59111557782E-05,-0.6883118463,-0.7254149076
2519008000000,,117715,,2518,974000000,"""map""",,,75.3583538715,-258.093562187,0.006905879,,8.16962729452E-05,-8.59115338944E-05,-0.6883399555,-0.7253882351
2519008000000,,117716,,2518,984000000,"""map""",,,75.3581825099,-258.096591441,0.0069058754,,8.16964526737E-05,-8.59111471702E-05,-0.688327485,-0.7254000685
2519008000000,,117717,,2518,994000000,"""map""",,,75.3580155653,-258.099655664,0.006905872,,8.16947483463E-05,-8.59117146593E-05,-0.6883202488,-0.7254069348
2519008000000,,117718,,2519,4000000,"""map""",,,75.3578501235,-258.102755227,0.0069058685,,8.16955238758E-05,-8.59107301494E-05,-0.6883087208,-0.7254178733
2519051000000,,117719,,2519,14000000,"""map""",,,75.3576970798,-258.105887984,0.0069058644,,8.16959381608E-05,-8.59108993802E-05,-0.6883375385,-0.7253905287
2519051000000,,117720,,2519,24000000,"""map""",,,75.3575219142,-258.109056713,0.0069058608,,8.16955840191E-05,-8.59102067845E-05,-0.6883253369,-0.7254021068
2519051000000,,117721,,2519,34000000,"""map""",,,75.3573571195,-258.112338633,0.0069103254,,8.47803742641E-05,-8.91355091893E-05,-0.6883133315,-0.7254134977
2519051000000,,117722,,2519,44000000,"""map""",,,75.3571650852,-258.115980301,0.0069341396,,8.28914114559E-05,-8.70827610976E-05,-0.6883375486,-0.7253905188
2519095000000,,117723,,2519,54000000,"""map""",,,75.356950744,-258.120010157,0.0069466622,,8.1592508597E-05,-8.5803419854E-05,-0.688322374,-0.7254049183
2519095000000,,117724,,2519,64000000,"""map""",,,75.3567145889,-258.124426458,0.0069403364,,8.21824596947E-05,-0.000086501,-0.6883069932,-0.7254195123
2519095000000,,117725,,2519,74000000,"""map""",,,75.3564591547,-258.129226891,0.0069322961,,8.30087149304E-05,-8.73474592867E-05,-0.6883310066,-0.7253967266
2519095000000,,117726,,2519,84000000,"""map""",,,75.3561831451,-258.134416194,0.0069324758,,8.3014299961E-05,-8.73062397591E-05,-0.6883180919,-0.7254089811
2519095000000,,117727,,2519,94000000,"""map""",,,75.355889345,-258.139989951,0.0069364048,,0.000082623,-8.68791054891E-05,-0.6883405767,-0.7253876454
2519115000000,,117728,,2519,104000000,"""map""",,,75.3555698224,-258.145952323,0.0069377239,,8.24858095722E-05,-8.67406751885E-05,-0.6883244864,-0.7254029136
2519115000000,,117729,,2519,114000000,"""map""",,,75.3552311619,-258.152301152,0.0069363004,,8.26276452747E-05,-0.000086895,-0.6883106868,-0.7254160076
2519124000000,,117730,,2519,124000000,"""map""",,,75.3548714699,-258.159034034,0.0069351529,,0.000082745,-0.000087018,-0.6883350248,-0.7253929137
2519134000000,,117731,,2519,134000000,"""map""",,,75.354493945,-258.166156032,0.0069354291,,8.27168069054E-05,-8.69878796975E-05,-0.688321259,-0.725405976
2519177000000,,117732,,2519,144000000,"""map""",,,75.3540957405,-258.173662297,0.0069360815,,8.26508776674E-05,-8.69185146302E-05,-0.6883425818,-0.7253857427
2519177000000,,117733,,2519,154000000,"""map""",,,75.3536750447,-258.181557245,0.0069361829,,8.26397690849E-05,-8.69082212014E-05,-0.6883275085,-0.725400046
2519177000000,,117734,,2519,164000000,"""map""",,,75.3532300357,-258.189838299,0.0069359043,,8.26672781446E-05,-8.69381413736E-05,-0.6883145326,-0.7254123584
2519177000000,,117735,,2519,174000000,"""map""",,,75.3527692001,-258.198503826,0.0069357548,,8.26832075478E-05,-8.69541269958E-05,-0.6883384838,-0.7253896314
2519219000000,,117736,,2519,184000000,"""map""",,,75.3522891461,-258.207558418,0.0069358363,,8.26750566793E-05,-8.69445691751E-05,-0.6883234581,-0.7254038893
2519219000000,,117737,,2519,194000000,"""map""",,,75.3517871599,-258.216999472,0.0069359377,,8.26647959559E-05,-8.69337111096E-05,-0.6883074116,-0.7254191153
2519219000000,,117738,,2519,204000000,"""map""",,,75.3512617178,-258.226824295,0.0069359344,,8.26650771077E-05,-8.693480936E-05,-0.6883309477,-0.7253967825
2519219000000,,117739,,2519,214000000,"""map""",,,75.3507142155,-258.237037803,0.0069358849,,8.26693848988E-05,-8.69400844987E-05,-0.6883182521,-0.7254088292
